{
"type": "FeatureCollection",
"name": "GA",
"crs": { "type": "name", "properties": { "name": "urn:ogc:def:crs:OGC:1.3:CRS84" } },
"features": [
{ "type": "Feature", "properties": { "USAF": "692704", "WBAN": 99999, "STATION NAME": "MPRC-FT STEWART", "CTRY": "US", "STATE": "GA", "ICAO": "KQRC", "LAT": 32.033, "LON": -81.667, "ELEV(M)": 18.0, "BEGIN": 19850125, "END": 19971231 }, "geometry": { "type": "Point", "coordinates": [ -81.667, 32.033 ] } },
{ "type": "Feature", "properties": { "USAF": "720257", "WBAN": 63835, "STATION NAME": "EARLY COUNTY AIRPORT", "CTRY": "US", "STATE": "GA", "ICAO": "KBIJ", "LAT": 31.397, "LON": -84.895, "ELEV(M)": 65.2, "BEGIN": 20060101, "END": 20221231 }, "geometry": { "type": "Point", "coordinates": [ -84.895, 31.397 ] } },
{ "type": "Feature", "properties": { "USAF": "720257", "WBAN": 99999, "STATION NAME": "EARLY CO", "CTRY": "US", "STATE": "GA", "ICAO": "KBIJ", "LAT": 31.4, "LON": -84.9, "ELEV(M)": 65.0, "BEGIN": 20040525, "END": 20051231 }, "geometry": { "type": "Point", "coordinates": [ -84.9, 31.4 ] } },
{ "type": "Feature", "properties": { "USAF": "720263", "WBAN": 63834, "STATION NAME": "ELBERT CO-PATZ FLD AIRPORT", "CTRY": "US", "STATE": "GA", "ICAO": "K27A", "LAT": 34.095, "LON": -82.816, "ELEV(M)": 183.8, "BEGIN": 20050101, "END": 20221231 }, "geometry": { "type": "Point", "coordinates": [ -82.816, 34.095 ] } },
{ "type": "Feature", "properties": { "USAF": "720263", "WBAN": 99999, "STATION NAME": "ELBERT CO PATZ FLD", "CTRY": "US", "STATE": "GA", "ICAO": null, "LAT": 34.095, "LON": -82.816, "ELEV(M)": 183.8, "BEGIN": 20040525, "END": 20041231 }, "geometry": { "type": "Point", "coordinates": [ -82.816, 34.095 ] } },
{ "type": "Feature", "properties": { "USAF": "720268", "WBAN": 53882, "STATION NAME": "DCATR CO INDUS AIRPK ARPT", "CTRY": "US", "STATE": "GA", "ICAO": "KBGE", "LAT": 30.983, "LON": -84.633, "ELEV(M)": 43.0, "BEGIN": 20060101, "END": 20221231 }, "geometry": { "type": "Point", "coordinates": [ -84.633, 30.983 ] } },
{ "type": "Feature", "properties": { "USAF": "720268", "WBAN": 99999, "STATION NAME": "DECATUR CO INDUSTRI", "CTRY": "US", "STATE": "GA", "ICAO": "KBGE", "LAT": 30.967, "LON": -84.633, "ELEV(M)": 43.0, "BEGIN": 20040525, "END": 20051231 }, "geometry": { "type": "Point", "coordinates": [ -84.633, 30.967 ] } },
{ "type": "Feature", "properties": { "USAF": "720289", "WBAN": 63836, "STATION NAME": "THOMSON-MCDUFFIE CO ARPT", "CTRY": "US", "STATE": "GA", "ICAO": "KHQU", "LAT": 33.53, "LON": -82.516, "ELEV(M)": 151.8, "BEGIN": 20050101, "END": 20221231 }, "geometry": { "type": "Point", "coordinates": [ -82.516, 33.53 ] } },
{ "type": "Feature", "properties": { "USAF": "720289", "WBAN": 99999, "STATION NAME": "THOMSON MCDUFFIE CO", "CTRY": "US", "STATE": "GA", "ICAO": "KHQU", "LAT": 33.533, "LON": -82.517, "ELEV(M)": 152.0, "BEGIN": 20040525, "END": 20041231 }, "geometry": { "type": "Point", "coordinates": [ -82.517, 33.533 ] } },
{ "type": "Feature", "properties": { "USAF": "720294", "WBAN": 53898, "STATION NAME": "WASHINGTON-WILKES CO ARPT", "CTRY": "US", "STATE": "GA", "ICAO": "KIIY", "LAT": 33.78, "LON": -82.816, "ELEV(M)": 196.6, "BEGIN": 20061028, "END": 20221231 }, "geometry": { "type": "Point", "coordinates": [ -82.816, 33.78 ] } },
{ "type": "Feature", "properties": { "USAF": "720294", "WBAN": 99999, "STATION NAME": "WASHINGTON WILKES CO", "CTRY": "US", "STATE": "GA", "ICAO": "KIIY", "LAT": 33.783, "LON": -82.817, "ELEV(M)": 197.0, "BEGIN": 20040525, "END": 20040831 }, "geometry": { "type": "Point", "coordinates": [ -82.817, 33.783 ] } },
{ "type": "Feature", "properties": { "USAF": "720300", "WBAN": 99999, "STATION NAME": "WARNER-ROBINS(NEXRAD)", "CTRY": "US", "STATE": "GA", "ICAO": "KJGX", "LAT": 32.683, "LON": -83.35, "ELEV(M)": 159.0, "BEGIN": 20051224, "END": 20051224 }, "geometry": { "type": "Point", "coordinates": [ -83.35, 32.683 ] } },
{ "type": "Feature", "properties": { "USAF": "720301", "WBAN": 63846, "STATION NAME": "PLANTATION AIRPARK", "CTRY": "US", "STATE": "GA", "ICAO": "KJYL", "LAT": 32.646, "LON": -81.596, "ELEV(M)": 57.3, "BEGIN": 20060101, "END": 20221231 }, "geometry": { "type": "Point", "coordinates": [ -81.596, 32.646 ] } },
{ "type": "Feature", "properties": { "USAF": "720301", "WBAN": 99999, "STATION NAME": "PLANTATION AIRPARK", "CTRY": "US", "STATE": "GA", "ICAO": "KJYL", "LAT": 32.645, "LON": -81.596, "ELEV(M)": 57.0, "BEGIN": 20040525, "END": 20051231 }, "geometry": { "type": "Point", "coordinates": [ -81.596, 32.645 ] } },
{ "type": "Feature", "properties": { "USAF": "720347", "WBAN": 63877, "STATION NAME": "GREENE COUNTY REGIONAL AIRPORT", "CTRY": "US", "STATE": "GA", "ICAO": "K3J7", "LAT": 33.598, "LON": -83.139, "ELEV(M)": 206.4, "BEGIN": 20060101, "END": 20221231 }, "geometry": { "type": "Point", "coordinates": [ -83.139, 33.598 ] } },
{ "type": "Feature", "properties": { "USAF": "720347", "WBAN": 99999, "STATION NAME": "GREENE COUNTY RGNL", "CTRY": "US", "STATE": "GA", "ICAO": "K3J7", "LAT": 33.6, "LON": -83.133, "ELEV(M)": 206.0, "BEGIN": 20050427, "END": 20051231 }, "geometry": { "type": "Point", "coordinates": [ -83.133, 33.6 ] } },
{ "type": "Feature", "properties": { "USAF": "720348", "WBAN": 63886, "STATION NAME": "BALDWIN COUNTY AIRPORT", "CTRY": "US", "STATE": "GA", "ICAO": "KMLJ", "LAT": 33.154, "LON": -83.241, "ELEV(M)": 117.0, "BEGIN": 20060101, "END": 20221231 }, "geometry": { "type": "Point", "coordinates": [ -83.241, 33.154 ] } },
{ "type": "Feature", "properties": { "USAF": "720348", "WBAN": 99999, "STATION NAME": "BALDWIN CO", "CTRY": "US", "STATE": "GA", "ICAO": "KMLJ", "LAT": 33.154, "LON": -83.241, "ELEV(M)": 117.0, "BEGIN": 20050427, "END": 20051231 }, "geometry": { "type": "Point", "coordinates": [ -83.241, 33.154 ] } },
{ "type": "Feature", "properties": { "USAF": "720392", "WBAN": 128, "STATION NAME": "HOMERVILLE AIRPORT", "CTRY": "US", "STATE": "GA", "ICAO": "KHOE", "LAT": 31.056, "LON": -82.767, "ELEV(M)": 57.3, "BEGIN": 20070521, "END": 20221231 }, "geometry": { "type": "Point", "coordinates": [ -82.767, 31.056 ] } },
{ "type": "Feature", "properties": { "USAF": "720392", "WBAN": 99999, "STATION NAME": "HOMERVILLE", "CTRY": "US", "STATE": "GA", "ICAO": "KHOE", "LAT": 31.056, "LON": -82.774, "ELEV(M)": 56.7, "BEGIN": 20080101, "END": 20081231 }, "geometry": { "type": "Point", "coordinates": [ -82.774, 31.056 ] } },
{ "type": "Feature", "properties": { "USAF": "720409", "WBAN": 99999, "STATION NAME": "BLAIRSVILLE AIRPORT", "CTRY": "US", "STATE": "GA", "ICAO": "KDZJ", "LAT": 34.85, "LON": -83.983, "ELEV(M)": 582.0, "BEGIN": 20080101, "END": 20221228 }, "geometry": { "type": "Point", "coordinates": [ -83.983, 34.85 ] } },
{ "type": "Feature", "properties": { "USAF": "720671", "WBAN": 248, "STATION NAME": "JESUP WAYNE COUNTY AIRPORT", "CTRY": "US", "STATE": "GA", "ICAO": "KJES", "LAT": 31.554, "LON": -81.883, "ELEV(M)": 33.2, "BEGIN": 20100112, "END": 20221231 }, "geometry": { "type": "Point", "coordinates": [ -81.883, 31.554 ] } },
{ "type": "Feature", "properties": { "USAF": "720671", "WBAN": 99999, "STATION NAME": "JESUP WAYNE CO", "CTRY": "US", "STATE": "GA", "ICAO": "KJES", "LAT": 31.554, "LON": -81.883, "ELEV(M)": 32.9, "BEGIN": 20100111, "END": 20100111 }, "geometry": { "type": "Point", "coordinates": [ -81.883, 31.554 ] } },
{ "type": "Feature", "properties": { "USAF": "720674", "WBAN": 249, "STATION NAME": "WEST GEORGIA REGIONAL AIRPORT O V GRAY FIELD", "CTRY": "US", "STATE": "GA", "ICAO": "KCTJ", "LAT": 33.633, "LON": -85.15, "ELEV(M)": 354.2, "BEGIN": 20100129, "END": 20221231 }, "geometry": { "type": "Point", "coordinates": [ -85.15, 33.633 ] } },
{ "type": "Feature", "properties": { "USAF": "720712", "WBAN": 250, "STATION NAME": "HENRY TIFT MYERS AIRPORT", "CTRY": "US", "STATE": "GA", "ICAO": "KTMA", "LAT": 31.429, "LON": -83.489, "ELEV(M)": 108.2, "BEGIN": 20100804, "END": 20220916 }, "geometry": { "type": "Point", "coordinates": [ -83.489, 31.429 ] } },
{ "type": "Feature", "properties": { "USAF": "720714", "WBAN": 252, "STATION NAME": "PAULDING NORTHWEST ATLANTA AIRPORT", "CTRY": "US", "STATE": "GA", "ICAO": "KPUJ", "LAT": 33.912, "LON": -84.941, "ELEV(M)": 393.2, "BEGIN": 20100425, "END": 20221231 }, "geometry": { "type": "Point", "coordinates": [ -84.941, 33.912 ] } },
{ "type": "Feature", "properties": { "USAF": "720738", "WBAN": 267, "STATION NAME": "THOMASVILLE REGIONAL AIRPORT", "CTRY": "US", "STATE": "GA", "ICAO": "KTVI", "LAT": 30.902, "LON": -83.881, "ELEV(M)": 80.2, "BEGIN": 20100610, "END": 20221231 }, "geometry": { "type": "Point", "coordinates": [ -83.881, 30.902 ] } },
{ "type": "Feature", "properties": { "USAF": "720897", "WBAN": 99999, "STATION NAME": "MONROE WALTON CO", "CTRY": "US", "STATE": "GA", "ICAO": "KD73", "LAT": 33.782, "LON": -83.693, "ELEV(M)": 264.3, "BEGIN": 20170817, "END": 20221231 }, "geometry": { "type": "Point", "coordinates": [ -83.693, 33.782 ] } },
{ "type": "Feature", "properties": { "USAF": "720948", "WBAN": 328, "STATION NAME": "JIMMY CARTER REGIONAL AIRPORT", "CTRY": "US", "STATE": "GA", "ICAO": "KACJ", "LAT": 32.11, "LON": -84.189, "ELEV(M)": 142.7, "BEGIN": 20110711, "END": 20221231 }, "geometry": { "type": "Point", "coordinates": [ -84.189, 32.11 ] } },
{ "type": "Feature", "properties": { "USAF": "720951", "WBAN": 330, "STATION NAME": "EAST GEORGIA REGIONAL AIRPORT", "CTRY": "US", "STATE": "GA", "ICAO": "KSBO", "LAT": 32.609, "LON": -82.37, "ELEV(M)": 100.3, "BEGIN": 20110704, "END": 20221231 }, "geometry": { "type": "Point", "coordinates": [ -82.37, 32.609 ] } },
{ "type": "Feature", "properties": { "USAF": "720959", "WBAN": 99999, "STATION NAME": "BUTLER MUNI", "CTRY": "US", "STATE": "GA", "ICAO": null, "LAT": 32.568, "LON": -84.251, "ELEV(M)": 203.3, "BEGIN": 20111021, "END": 20121031 }, "geometry": { "type": "Point", "coordinates": [ -84.251, 32.568 ] } },
{ "type": "Feature", "properties": { "USAF": "720962", "WBAN": 337, "STATION NAME": "HEART OF GEORGIA REGIONAL AIRPORT", "CTRY": "US", "STATE": "GA", "ICAO": "KEZM", "LAT": 32.214, "LON": -83.128, "ELEV(M)": 93.3, "BEGIN": 20111102, "END": 20221231 }, "geometry": { "type": "Point", "coordinates": [ -83.128, 32.214 ] } },
{ "type": "Feature", "properties": { "USAF": "720962", "WBAN": 99999, "STATION NAME": "HEART OF GEORGIA RGNL", "CTRY": "US", "STATE": "GA", "ICAO": "KEZM", "LAT": 32.214, "LON": -83.128, "ELEV(M)": 92.7, "BEGIN": 20111021, "END": 20111101 }, "geometry": { "type": "Point", "coordinates": [ -83.128, 32.214 ] } },
{ "type": "Feature", "properties": { "USAF": "720966", "WBAN": 339, "STATION NAME": "GRIFFIN SPALDING COUNTY AIRPORT", "CTRY": "US", "STATE": "GA", "ICAO": "K6A2", "LAT": 33.227, "LON": -84.275, "ELEV(M)": 292.3, "BEGIN": 20111118, "END": 20221231 }, "geometry": { "type": "Point", "coordinates": [ -84.275, 33.227 ] } },
{ "type": "Feature", "properties": { "USAF": "721033", "WBAN": 350, "STATION NAME": "FITZGERALD MUNICIPAL AIRPORT", "CTRY": "US", "STATE": "GA", "ICAO": "KFZG", "LAT": 31.684, "LON": -83.27, "ELEV(M)": 111.3, "BEGIN": 20120620, "END": 20221231 }, "geometry": { "type": "Point", "coordinates": [ -83.27, 31.684 ] } },
{ "type": "Feature", "properties": { "USAF": "721035", "WBAN": 352, "STATION NAME": "HAZLEHURST AIRPORT", "CTRY": "US", "STATE": "GA", "ICAO": "KAZE", "LAT": 31.885, "LON": -82.647, "ELEV(M)": 78.0, "BEGIN": 20120705, "END": 20221231 }, "geometry": { "type": "Point", "coordinates": [ -82.647, 31.885 ] } },
{ "type": "Feature", "properties": { "USAF": "722062", "WBAN": 63842, "STATION NAME": "DOUGLAS MUNICIPAL AIRPORT", "CTRY": "US", "STATE": "GA", "ICAO": "KDQH", "LAT": 31.477, "LON": -82.861, "ELEV(M)": 78.3, "BEGIN": 20060101, "END": 20221231 }, "geometry": { "type": "Point", "coordinates": [ -82.861, 31.477 ] } },
{ "type": "Feature", "properties": { "USAF": "722062", "WBAN": 99999, "STATION NAME": "DOUGLAS MUNI", "CTRY": "US", "STATE": "GA", "ICAO": "KDQH", "LAT": 31.478, "LON": -82.86, "ELEV(M)": 78.0, "BEGIN": 20040510, "END": 20051231 }, "geometry": { "type": "Point", "coordinates": [ -82.86, 31.478 ] } },
{ "type": "Feature", "properties": { "USAF": "722070", "WBAN": 3822, "STATION NAME": "SAVANNAH/HILTON HEAD INTL AIRPORT", "CTRY": "US", "STATE": "GA", "ICAO": "KSAV", "LAT": 32.131, "LON": -81.202, "ELEV(M)": 8.7, "BEGIN": 19480101, "END": 20221231 }, "geometry": { "type": "Point", "coordinates": [ -81.202, 32.131 ] } },
{ "type": "Feature", "properties": { "USAF": "722077", "WBAN": 99999, "STATION NAME": "TYBEE COAST GUARD STATION", "CTRY": "US", "STATE": "GA", "ICAO": null, "LAT": 32.02, "LON": -80.85, "ELEV(M)": 2.0, "BEGIN": 19750911, "END": 19871030 }, "geometry": { "type": "Point", "coordinates": [ -80.85, 32.02 ] } },
{ "type": "Feature", "properties": { "USAF": "722090", "WBAN": 3875, "STATION NAME": "WRIGHT AAF AIRPORT", "CTRY": "US", "STATE": "GA", "ICAO": "KLHW", "LAT": 31.883, "LON": -81.567, "ELEV(M)": 13.7, "BEGIN": 20060103, "END": 20221231 }, "geometry": { "type": "Point", "coordinates": [ -81.567, 31.883 ] } },
{ "type": "Feature", "properties": { "USAF": "722090", "WBAN": 99999, "STATION NAME": "FT STEWART/WRIGHT", "CTRY": "US", "STATE": "GA", "ICAO": "KLHW", "LAT": 31.883, "LON": -81.567, "ELEV(M)": 14.0, "BEGIN": 19670201, "END": 19971231 }, "geometry": { "type": "Point", "coordinates": [ -81.567, 31.883 ] } },
{ "type": "Feature", "properties": { "USAF": "722109", "WBAN": 355, "STATION NAME": "CHEROKEE COUNTY AIRPORT", "CTRY": "US", "STATE": "GA", "ICAO": "KCNI", "LAT": 34.317, "LON": -84.417, "ELEV(M)": 372.2, "BEGIN": 20050101, "END": 20221231 }, "geometry": { "type": "Point", "coordinates": [ -84.417, 34.317 ] } },
{ "type": "Feature", "properties": { "USAF": "722109", "WBAN": 99999, "STATION NAME": "CHEROKEE COUNTY AIRPORT", "CTRY": "US", "STATE": "GA", "ICAO": "KCNI", "LAT": 34.3, "LON": -84.417, "ELEV(M)": 372.0, "BEGIN": 20040525, "END": 20041231 }, "geometry": { "type": "Point", "coordinates": [ -84.417, 34.3 ] } },
{ "type": "Feature", "properties": { "USAF": "722130", "WBAN": 13861, "STATION NAME": "WAYCROSS-WARE CO. AIRPORT", "CTRY": "US", "STATE": "GA", "ICAO": "KAYS", "LAT": 31.25, "LON": -82.4, "ELEV(M)": 43.3, "BEGIN": 19421201, "END": 20221231 }, "geometry": { "type": "Point", "coordinates": [ -82.4, 31.25 ] } },
{ "type": "Feature", "properties": { "USAF": "722130", "WBAN": 99999, "STATION NAME": "WAYCROSS/WARE CO.", "CTRY": "US", "STATE": "GA", "ICAO": "KAYS", "LAT": 31.25, "LON": -82.4, "ELEV(M)": 46.0, "BEGIN": 20001004, "END": 20031231 }, "geometry": { "type": "Point", "coordinates": [ -82.4, 31.25 ] } },
{ "type": "Feature", "properties": { "USAF": "722134", "WBAN": 63822, "STATION NAME": "VIDALIA REGIONAL AIRPORT", "CTRY": "US", "STATE": "GA", "ICAO": "KVDI", "LAT": 32.193, "LON": -82.372, "ELEV(M)": 83.5, "BEGIN": 20060101, "END": 20221231 }, "geometry": { "type": "Point", "coordinates": [ -82.372, 32.193 ] } },
{ "type": "Feature", "properties": { "USAF": "722134", "WBAN": 99999, "STATION NAME": "VIDALIA RGNL", "CTRY": "US", "STATE": "GA", "ICAO": "KVDI", "LAT": 32.2, "LON": -82.367, "ELEV(M)": 84.0, "BEGIN": 20010705, "END": 20051231 }, "geometry": { "type": "Point", "coordinates": [ -82.367, 32.2 ] } },
{ "type": "Feature", "properties": { "USAF": "722135", "WBAN": 13870, "STATION NAME": "ALMA/BACON CO.", "CTRY": "US", "STATE": "GA", "ICAO": "KAMG", "LAT": 31.536, "LON": -82.507, "ELEV(M)": 62.8, "BEGIN": 19730101, "END": 19971231 }, "geometry": { "type": "Point", "coordinates": [ -82.507, 31.536 ] } },
{ "type": "Feature", "properties": { "USAF": "722136", "WBAN": 53883, "STATION NAME": "BRUNSWICK GOLDEN ISLES APT", "CTRY": "US", "STATE": "GA", "ICAO": "KBQK", "LAT": 31.259, "LON": -81.466, "ELEV(M)": 7.9, "BEGIN": 20060101, "END": 20221231 }, "geometry": { "type": "Point", "coordinates": [ -81.466, 31.259 ] } },
{ "type": "Feature", "properties": { "USAF": "722136", "WBAN": 99999, "STATION NAME": "BRUNSWICK GOLDEN IS", "CTRY": "US", "STATE": "GA", "ICAO": "KBQK", "LAT": 31.25, "LON": -81.467, "ELEV(M)": 8.0, "BEGIN": 19730101, "END": 19971231 }, "geometry": { "type": "Point", "coordinates": [ -81.467, 31.25 ] } },
{ "type": "Feature", "properties": { "USAF": "722137", "WBAN": 13878, "STATION NAME": "MALCOLM MC KINNON AIRPORT", "CTRY": "US", "STATE": "GA", "ICAO": "KSSI", "LAT": 31.153, "LON": -81.391, "ELEV(M)": 4.3, "BEGIN": 19730101, "END": 20221231 }, "geometry": { "type": "Point", "coordinates": [ -81.391, 31.153 ] } },
{ "type": "Feature", "properties": { "USAF": "722147", "WBAN": 53817, "STATION NAME": "MOULTRIE MUNICIPAL AIRPORT", "CTRY": "US", "STATE": "GA", "ICAO": "KMGR", "LAT": 31.083, "LON": -83.8, "ELEV(M)": 86.3, "BEGIN": 20050101, "END": 20221230 }, "geometry": { "type": "Point", "coordinates": [ -83.8, 31.083 ] } },
{ "type": "Feature", "properties": { "USAF": "722147", "WBAN": 99999, "STATION NAME": "MOULTRIE MUNI", "CTRY": "US", "STATE": "GA", "ICAO": "KMGR", "LAT": 31.085, "LON": -83.803, "ELEV(M)": 90.0, "BEGIN": 20040525, "END": 20041231 }, "geometry": { "type": "Point", "coordinates": [ -83.803, 31.085 ] } },
{ "type": "Feature", "properties": { "USAF": "722150", "WBAN": 99999, "STATION NAME": "PEACHTREE CITY", "CTRY": "US", "STATE": "GA", "ICAO": null, "LAT": 33.356, "LON": -84.567, "ELEV(M)": 244.9, "BEGIN": 19990428, "END": 20060212 }, "geometry": { "type": "Point", "coordinates": [ -84.567, 33.356 ] } },
{ "type": "Feature", "properties": { "USAF": "722154", "WBAN": 53885, "STATION NAME": "DALTON MUNICIPAL AIRPORT", "CTRY": "US", "STATE": "GA", "ICAO": "KDNN", "LAT": 34.722, "LON": -84.869, "ELEV(M)": 216.4, "BEGIN": 20060101, "END": 20221231 }, "geometry": { "type": "Point", "coordinates": [ -84.869, 34.722 ] } },
{ "type": "Feature", "properties": { "USAF": "722154", "WBAN": 99999, "STATION NAME": "DALTON", "CTRY": "US", "STATE": "GA", "ICAO": "KDNN", "LAT": 34.722, "LON": -84.869, "ELEV(M)": 216.0, "BEGIN": 19990114, "END": 20051231 }, "geometry": { "type": "Point", "coordinates": [ -84.869, 34.722 ] } },
{ "type": "Feature", "properties": { "USAF": "722156", "WBAN": 53873, "STATION NAME": "CARTERSVILLE AIRPORT", "CTRY": "US", "STATE": "GA", "ICAO": "KVPC", "LAT": 34.116, "LON": -84.851, "ELEV(M)": 230.0, "BEGIN": 20060101, "END": 20221231 }, "geometry": { "type": "Point", "coordinates": [ -84.851, 34.116 ] } },
{ "type": "Feature", "properties": { "USAF": "722156", "WBAN": 99999, "STATION NAME": "CARTERSVILLE", "CTRY": "US", "STATE": "GA", "ICAO": "KVPC", "LAT": 34.117, "LON": -84.85, "ELEV(M)": 231.0, "BEGIN": 20010705, "END": 20051231 }, "geometry": { "type": "Point", "coordinates": [ -84.85, 34.117 ] } },
{ "type": "Feature", "properties": { "USAF": "722160", "WBAN": 13869, "STATION NAME": "SW GEORGIA REGIONAL ARPT", "CTRY": "US", "STATE": "GA", "ICAO": "KABY", "LAT": 31.536, "LON": -84.196, "ELEV(M)": 58.2, "BEGIN": 19730101, "END": 20221231 }, "geometry": { "type": "Point", "coordinates": [ -84.196, 31.536 ] } },
{ "type": "Feature", "properties": { "USAF": "722160", "WBAN": 99999, "STATION NAME": "ALBANY MUNICIPAL", "CTRY": "US", "STATE": "GA", "ICAO": "KABY", "LAT": 31.533, "LON": -84.183, "ELEV(M)": 59.0, "BEGIN": 20000101, "END": 20031231 }, "geometry": { "type": "Point", "coordinates": [ -84.183, 31.533 ] } },
{ "type": "Feature", "properties": { "USAF": "722166", "WBAN": 93845, "STATION NAME": "VALDOSTA REGIONAL AIRPORT", "CTRY": "US", "STATE": "GA", "ICAO": "KVLD", "LAT": 30.776, "LON": -83.274, "ELEV(M)": 58.7, "BEGIN": 19480101, "END": 20221231 }, "geometry": { "type": "Point", "coordinates": [ -83.274, 30.776 ] } },
{ "type": "Feature", "properties": { "USAF": "722166", "WBAN": 99999, "STATION NAME": "VALDOSTA RGNL", "CTRY": "US", "STATE": "GA", "ICAO": "KVLD", "LAT": 30.783, "LON": -83.267, "ELEV(M)": 62.0, "BEGIN": 20000101, "END": 20031231 }, "geometry": { "type": "Point", "coordinates": [ -83.267, 30.783 ] } },
{ "type": "Feature", "properties": { "USAF": "722170", "WBAN": 3813, "STATION NAME": "MIDDLE GEORGIA REGIONAL AIRPORT", "CTRY": "US", "STATE": "GA", "ICAO": "KMCN", "LAT": 32.689, "LON": -83.653, "ELEV(M)": 104.5, "BEGIN": 19411020, "END": 20221231 }, "geometry": { "type": "Point", "coordinates": [ -83.653, 32.689 ] } },
{ "type": "Feature", "properties": { "USAF": "722175", "WBAN": 13860, "STATION NAME": "ROBINS AFB AIRPORT", "CTRY": "US", "STATE": "GA", "ICAO": "KWRB", "LAT": 32.633, "LON": -83.6, "ELEV(M)": 89.6, "BEGIN": 19420807, "END": 20221231 }, "geometry": { "type": "Point", "coordinates": [ -83.6, 32.633 ] } },
{ "type": "Feature", "properties": { "USAF": "722175", "WBAN": 99999, "STATION NAME": "ROBINS AFB", "CTRY": "US", "STATE": "GA", "ICAO": "KWRB", "LAT": 32.633, "LON": -83.6, "ELEV(M)": 90.0, "BEGIN": 20000101, "END": 20041231 }, "geometry": { "type": "Point", "coordinates": [ -83.6, 32.633 ] } },
{ "type": "Feature", "properties": { "USAF": "722176", "WBAN": 53884, "STATION NAME": "NEWNAN COWETA COUNTY ARPT", "CTRY": "US", "STATE": "GA", "ICAO": "KCCO", "LAT": 33.312, "LON": -84.77, "ELEV(M)": 295.7, "BEGIN": 20060101, "END": 20221224 }, "geometry": { "type": "Point", "coordinates": [ -84.77, 33.312 ] } },
{ "type": "Feature", "properties": { "USAF": "722176", "WBAN": 99999, "STATION NAME": "NEWNAN COWETA CO", "CTRY": "US", "STATE": "GA", "ICAO": "KCCO", "LAT": 33.317, "LON": -84.767, "ELEV(M)": 296.0, "BEGIN": 19990114, "END": 20051231 }, "geometry": { "type": "Point", "coordinates": [ -84.767, 33.317 ] } },
{ "type": "Feature", "properties": { "USAF": "722180", "WBAN": 3820, "STATION NAME": "AUGUSTA REGIONAL AT BUSH FIELD AP", "CTRY": "US", "STATE": "GA", "ICAO": "KAGS", "LAT": 33.365, "LON": -81.964, "ELEV(M)": 40.9, "BEGIN": 19480101, "END": 20221231 }, "geometry": { "type": "Point", "coordinates": [ -81.964, 33.365 ] } },
{ "type": "Feature", "properties": { "USAF": "722181", "WBAN": 13837, "STATION NAME": "DANIEL FIELD AIRPORT", "CTRY": "US", "STATE": "GA", "ICAO": "KDNL", "LAT": 33.467, "LON": -82.038, "ELEV(M)": 125.1, "BEGIN": 20060101, "END": 20221231 }, "geometry": { "type": "Point", "coordinates": [ -82.038, 33.467 ] } },
{ "type": "Feature", "properties": { "USAF": "722181", "WBAN": 99999, "STATION NAME": "DANIEL FIELD", "CTRY": "US", "STATE": "GA", "ICAO": "KDNL", "LAT": 33.467, "LON": -82.039, "ELEV(M)": 129.0, "BEGIN": 19970123, "END": 19971231 }, "geometry": { "type": "Point", "coordinates": [ -82.039, 33.467 ] } },
{ "type": "Feature", "properties": { "USAF": "722184", "WBAN": 99999, "STATION NAME": "PLAINS / PETERSON FIELD", "CTRY": "US", "STATE": "GA", "ICAO": null, "LAT": 32.08, "LON": -84.37, "ELEV(M)": 160.0, "BEGIN": 19771221, "END": 19810122 }, "geometry": { "type": "Point", "coordinates": [ -84.37, 32.08 ] } },
{ "type": "Feature", "properties": { "USAF": "722185", "WBAN": 53838, "STATION NAME": "LEE GILMER MEMORIAL ARPT", "CTRY": "US", "STATE": "GA", "ICAO": "KGVL", "LAT": 34.272, "LON": -83.83, "ELEV(M)": 386.4, "BEGIN": 20060101, "END": 20221231 }, "geometry": { "type": "Point", "coordinates": [ -83.83, 34.272 ] } },
{ "type": "Feature", "properties": { "USAF": "722185", "WBAN": 99999, "STATION NAME": "LEE GILMER MEM", "CTRY": "US", "STATE": "GA", "ICAO": "KGVL", "LAT": 34.267, "LON": -83.833, "ELEV(M)": 389.0, "BEGIN": 19970718, "END": 19971231 }, "geometry": { "type": "Point", "coordinates": [ -83.833, 34.267 ] } },
{ "type": "Feature", "properties": { "USAF": "722190", "WBAN": 13874, "STATION NAME": "HARTSFIELD-JACKSON ATLANTA INTL AP", "CTRY": "US", "STATE": "GA", "ICAO": "KATL", "LAT": 33.63, "LON": -84.442, "ELEV(M)": 308.3, "BEGIN": 19730101, "END": 20221231 }, "geometry": { "type": "Point", "coordinates": [ -84.442, 33.63 ] } },
{ "type": "Feature", "properties": { "USAF": "722195", "WBAN": 3888, "STATION NAME": "FULTON CO-BROWN FLD ARPT", "CTRY": "US", "STATE": "GA", "ICAO": "KFTY", "LAT": 33.778, "LON": -84.525, "ELEV(M)": 245.0, "BEGIN": 20060101, "END": 20221231 }, "geometry": { "type": "Point", "coordinates": [ -84.525, 33.778 ] } },
{ "type": "Feature", "properties": { "USAF": "722195", "WBAN": 99999, "STATION NAME": "FULTON CO ARPT BROW", "CTRY": "US", "STATE": "GA", "ICAO": "KFTY", "LAT": 33.767, "LON": -84.517, "ELEV(M)": 256.0, "BEGIN": 19730101, "END": 19971231 }, "geometry": { "type": "Point", "coordinates": [ -84.517, 33.767 ] } },
{ "type": "Feature", "properties": { "USAF": "722196", "WBAN": 53863, "STATION NAME": "DEKALB-PEACHTREE AIRPORT", "CTRY": "US", "STATE": "GA", "ICAO": "KPDK", "LAT": 33.878, "LON": -84.298, "ELEV(M)": 298.4, "BEGIN": 20060101, "END": 20221231 }, "geometry": { "type": "Point", "coordinates": [ -84.298, 33.878 ] } },
{ "type": "Feature", "properties": { "USAF": "722196", "WBAN": 99999, "STATION NAME": "DEKALB PEACHTREE", "CTRY": "US", "STATE": "GA", "ICAO": "KPDK", "LAT": 33.867, "LON": -84.3, "ELEV(M)": 306.0, "BEGIN": 19810801, "END": 19971231 }, "geometry": { "type": "Point", "coordinates": [ -84.3, 33.867 ] } },
{ "type": "Feature", "properties": { "USAF": "722197", "WBAN": 53819, "STATION NAME": "PCHTRE CTY-FALCON FLD ARPT", "CTRY": "US", "STATE": "GA", "ICAO": "KFFC", "LAT": 33.354, "LON": -84.569, "ELEV(M)": 241.2, "BEGIN": 20060101, "END": 20221231 }, "geometry": { "type": "Point", "coordinates": [ -84.569, 33.354 ] } },
{ "type": "Feature", "properties": { "USAF": "722197", "WBAN": 99999, "STATION NAME": "PEACHTREE CITY FALCO", "CTRY": "US", "STATE": "GA", "ICAO": "KFFC", "LAT": 33.357, "LON": -84.572, "ELEV(M)": 246.0, "BEGIN": 19960201, "END": 19971231 }, "geometry": { "type": "Point", "coordinates": [ -84.572, 33.357 ] } },
{ "type": "Feature", "properties": { "USAF": "722217", "WBAN": 63881, "STATION NAME": "W H `BUD` BARRON AIRPORT", "CTRY": "US", "STATE": "GA", "ICAO": "KDBN", "LAT": 32.564, "LON": -82.985, "ELEV(M)": 94.2, "BEGIN": 20060101, "END": 20221231 }, "geometry": { "type": "Point", "coordinates": [ -82.985, 32.564 ] } },
{ "type": "Feature", "properties": { "USAF": "722217", "WBAN": 99999, "STATION NAME": "W H BUD BARRON", "CTRY": "US", "STATE": "GA", "ICAO": "KDBN", "LAT": 32.564, "LON": -82.985, "ELEV(M)": 94.0, "BEGIN": 20050628, "END": 20051231 }, "geometry": { "type": "Point", "coordinates": [ -82.985, 32.564 ] } },
{ "type": "Feature", "properties": { "USAF": "722250", "WBAN": 13829, "STATION NAME": "LAWSON AAF AIRPORT", "CTRY": "US", "STATE": "GA", "ICAO": "KLSF", "LAT": 32.337, "LON": -84.991, "ELEV(M)": 70.7, "BEGIN": 19390501, "END": 20221231 }, "geometry": { "type": "Point", "coordinates": [ -84.991, 32.337 ] } },
{ "type": "Feature", "properties": { "USAF": "722250", "WBAN": 99999, "STATION NAME": "FORT BENNING", "CTRY": "US", "STATE": "GA", "ICAO": "KLSF", "LAT": 32.333, "LON": -85.0, "ELEV(M)": 71.0, "BEGIN": 20000101, "END": 20041231 }, "geometry": { "type": "Point", "coordinates": [ -85.0, 32.333 ] } },
{ "type": "Feature", "properties": { "USAF": "722255", "WBAN": 93842, "STATION NAME": "COLUMBUS METRO AIRPORT", "CTRY": "US", "STATE": "GA", "ICAO": "KCSG", "LAT": 32.516, "LON": -84.942, "ELEV(M)": 120.0, "BEGIN": 19480101, "END": 20221231 }, "geometry": { "type": "Point", "coordinates": [ -84.942, 32.516 ] } },
{ "type": "Feature", "properties": { "USAF": "722270", "WBAN": 13864, "STATION NAME": "DOBBINS AIR RESERVE BASE AIRPORT", "CTRY": "US", "STATE": "GA", "ICAO": "KMGE", "LAT": 33.917, "LON": -84.517, "ELEV(M)": 325.5, "BEGIN": 19460901, "END": 20221231 }, "geometry": { "type": "Point", "coordinates": [ -84.517, 33.917 ] } },
{ "type": "Feature", "properties": { "USAF": "722270", "WBAN": 99999, "STATION NAME": "MARIETTA/DOBBINS AF", "CTRY": "US", "STATE": "GA", "ICAO": "KMGE", "LAT": 33.917, "LON": -84.517, "ELEV(M)": 326.0, "BEGIN": 20000101, "END": 20041231 }, "geometry": { "type": "Point", "coordinates": [ -84.517, 33.917 ] } },
{ "type": "Feature", "properties": { "USAF": "722273", "WBAN": 99999, "STATION NAME": "ATLANTA (NAVRES)", "CTRY": "US", "STATE": "GA", "ICAO": null, "LAT": 33.917, "LON": -84.517, "ELEV(M)": 326.0, "BEGIN": 20030712, "END": 20030712 }, "geometry": { "type": "Point", "coordinates": [ -84.517, 33.917 ] } },
{ "type": "Feature", "properties": { "USAF": "722691", "WBAN": 366, "STATION NAME": "CLAXTON EVANS COUNTY AIRPORT", "CTRY": "US", "STATE": "GA", "ICAO": "KCWV", "LAT": 32.2, "LON": -81.87, "ELEV(M)": 34.1, "BEGIN": 20090101, "END": 20221231 }, "geometry": { "type": "Point", "coordinates": [ -81.87, 32.2 ] } },
{ "type": "Feature", "properties": { "USAF": "722691", "WBAN": 99999, "STATION NAME": "CLAXTON EVANS CO", "CTRY": "US", "STATE": "GA", "ICAO": "KCWV", "LAT": 32.195, "LON": -81.87, "ELEV(M)": 34.1, "BEGIN": 20080107, "END": 20081231 }, "geometry": { "type": "Point", "coordinates": [ -81.87, 32.195 ] } },
{ "type": "Feature", "properties": { "USAF": "723110", "WBAN": 13873, "STATION NAME": "ATHENS/BEN EPPS AIRPORT", "CTRY": "US", "STATE": "GA", "ICAO": "KAHN", "LAT": 33.948, "LON": -83.327, "ELEV(M)": 239.0, "BEGIN": 19730101, "END": 20221231 }, "geometry": { "type": "Point", "coordinates": [ -83.327, 33.948 ] } },
{ "type": "Feature", "properties": { "USAF": "723160", "WBAN": 13870, "STATION NAME": "BACON COUNTY AIRPORT", "CTRY": "US", "STATE": "GA", "ICAO": "KAMG", "LAT": 31.54, "LON": -82.507, "ELEV(M)": 58.2, "BEGIN": 20050101, "END": 20221231 }, "geometry": { "type": "Point", "coordinates": [ -82.507, 31.54 ] } },
{ "type": "Feature", "properties": { "USAF": "723200", "WBAN": 93801, "STATION NAME": "RICHARD B RUSSELL AIRPORT", "CTRY": "US", "STATE": "GA", "ICAO": "KRMG", "LAT": 34.348, "LON": -85.162, "ELEV(M)": 194.8, "BEGIN": 19780101, "END": 20221231 }, "geometry": { "type": "Point", "coordinates": [ -85.162, 34.348 ] } },
{ "type": "Feature", "properties": { "USAF": "723200", "WBAN": 99999, "STATION NAME": "ROME/RUSSELL(RAMOS)", "CTRY": "US", "STATE": "GA", "ICAO": "KRMG", "LAT": 34.35, "LON": -85.167, "ELEV(M)": 196.0, "BEGIN": 20000101, "END": 20031231 }, "geometry": { "type": "Point", "coordinates": [ -85.167, 34.35 ] } },
{ "type": "Feature", "properties": { "USAF": "725258", "WBAN": 382, "STATION NAME": "TOCCOA RG LETOURNEAU FIELD AIRPORT", "CTRY": "US", "STATE": "GA", "ICAO": "KTOC", "LAT": 34.594, "LON": -83.296, "ELEV(M)": 303.3, "BEGIN": 20120607, "END": 20221231 }, "geometry": { "type": "Point", "coordinates": [ -83.296, 34.594 ] } },
{ "type": "Feature", "properties": { "USAF": "747804", "WBAN": 13824, "STATION NAME": "HUNTER ARMY AIRFIELD", "CTRY": "US", "STATE": "GA", "ICAO": "KSVN", "LAT": 32.017, "LON": -81.133, "ELEV(M)": 12.5, "BEGIN": 20060101, "END": 20221231 }, "geometry": { "type": "Point", "coordinates": [ -81.133, 32.017 ] } },
{ "type": "Feature", "properties": { "USAF": "747804", "WBAN": 99999, "STATION NAME": "HUNTER AAF", "CTRY": "US", "STATE": "GA", "ICAO": "KSVN", "LAT": 32.009, "LON": -81.146, "ELEV(M)": 13.0, "BEGIN": 19440301, "END": 19971231 }, "geometry": { "type": "Point", "coordinates": [ -81.146, 32.009 ] } },
{ "type": "Feature", "properties": { "USAF": "747805", "WBAN": 63818, "STATION NAME": "STATESBORO-BULLOCK CO ARPT", "CTRY": "US", "STATE": "GA", "ICAO": "KTBR", "LAT": 32.483, "LON": -81.737, "ELEV(M)": 57.0, "BEGIN": 20060101, "END": 20221231 }, "geometry": { "type": "Point", "coordinates": [ -81.737, 32.483 ] } },
{ "type": "Feature", "properties": { "USAF": "747805", "WBAN": 99999, "STATION NAME": "STATESBORO BULLOCH", "CTRY": "US", "STATE": "GA", "ICAO": "KTBR", "LAT": 32.482, "LON": -81.733, "ELEV(M)": 57.0, "BEGIN": 20020423, "END": 20051231 }, "geometry": { "type": "Point", "coordinates": [ -81.733, 32.482 ] } },
{ "type": "Feature", "properties": { "USAF": "747806", "WBAN": 63809, "STATION NAME": "THOMASTON-UPSON CO AIRPORT", "CTRY": "US", "STATE": "GA", "ICAO": "KOPN", "LAT": 32.955, "LON": -84.264, "ELEV(M)": 242.6, "BEGIN": 20060101, "END": 20221231 }, "geometry": { "type": "Point", "coordinates": [ -84.264, 32.955 ] } },
{ "type": "Feature", "properties": { "USAF": "747806", "WBAN": 99999, "STATION NAME": "THOMASTON UPSON CO", "CTRY": "US", "STATE": "GA", "ICAO": "KOPN", "LAT": 32.95, "LON": -84.267, "ELEV(M)": 243.0, "BEGIN": 20020423, "END": 20051231 }, "geometry": { "type": "Point", "coordinates": [ -84.267, 32.95 ] } },
{ "type": "Feature", "properties": { "USAF": "747807", "WBAN": 3821, "STATION NAME": "LAGRANGE-CALLAWAY AIRPORT", "CTRY": "US", "STATE": "GA", "ICAO": "KLGC", "LAT": 33.017, "LON": -85.067, "ELEV(M)": 207.9, "BEGIN": 20060101, "END": 20221231 }, "geometry": { "type": "Point", "coordinates": [ -85.067, 33.017 ] } },
{ "type": "Feature", "properties": { "USAF": "747807", "WBAN": 99999, "STATION NAME": "LAGRANGE CALLAWAY", "CTRY": "US", "STATE": "GA", "ICAO": "KLGC", "LAT": 33.017, "LON": -85.067, "ELEV(M)": 211.0, "BEGIN": 20020423, "END": 20051231 }, "geometry": { "type": "Point", "coordinates": [ -85.067, 33.017 ] } },
{ "type": "Feature", "properties": { "USAF": "747808", "WBAN": 63803, "STATION NAME": "GWINNETT CO-BRISCOE FD APT", "CTRY": "US", "STATE": "GA", "ICAO": "KLZU", "LAT": 33.98, "LON": -83.963, "ELEV(M)": 323.4, "BEGIN": 20060101, "END": 20221231 }, "geometry": { "type": "Point", "coordinates": [ -83.963, 33.98 ] } },
{ "type": "Feature", "properties": { "USAF": "747808", "WBAN": 99999, "STATION NAME": "GWINNETT COUNTY ARPT", "CTRY": "US", "STATE": "GA", "ICAO": "KLZU", "LAT": 33.978, "LON": -83.962, "ELEV(M)": 323.0, "BEGIN": 20020430, "END": 20051231 }, "geometry": { "type": "Point", "coordinates": [ -83.962, 33.978 ] } },
{ "type": "Feature", "properties": { "USAF": "747809", "WBAN": 3832, "STATION NAME": "WINDER-BORROW AIRPORT", "CTRY": "US", "STATE": "GA", "ICAO": "KWDR", "LAT": 33.983, "LON": -83.668, "ELEV(M)": 287.4, "BEGIN": 20060101, "END": 20221231 }, "geometry": { "type": "Point", "coordinates": [ -83.668, 33.983 ] } },
{ "type": "Feature", "properties": { "USAF": "747809", "WBAN": 99999, "STATION NAME": "WINDER BARROW", "CTRY": "US", "STATE": "GA", "ICAO": "KWDR", "LAT": 33.983, "LON": -83.667, "ELEV(M)": 287.0, "BEGIN": 20020430, "END": 20051231 }, "geometry": { "type": "Point", "coordinates": [ -83.667, 33.983 ] } },
{ "type": "Feature", "properties": { "USAF": "747810", "WBAN": 13857, "STATION NAME": "MOODY AFB AIRPORT", "CTRY": "US", "STATE": "GA", "ICAO": "KVAD", "LAT": 30.967, "LON": -83.2, "ELEV(M)": 71.0, "BEGIN": 20060103, "END": 20221231 }, "geometry": { "type": "Point", "coordinates": [ -83.2, 30.967 ] } },
{ "type": "Feature", "properties": { "USAF": "747810", "WBAN": 99999, "STATION NAME": "MOODY AFB/VALDOSTA", "CTRY": "US", "STATE": "GA", "ICAO": "KVAD", "LAT": 30.967, "LON": -83.2, "ELEV(M)": 71.0, "BEGIN": 19420401, "END": 19971231 }, "geometry": { "type": "Point", "coordinates": [ -83.2, 30.967 ] } },
{ "type": "Feature", "properties": { "USAF": "747812", "WBAN": 63813, "STATION NAME": "COBB CO-MC COLLUM FLD ARPT", "CTRY": "US", "STATE": "GA", "ICAO": "KRYY", "LAT": 34.013, "LON": -84.599, "ELEV(M)": 317.0, "BEGIN": 20060101, "END": 20221231 }, "geometry": { "type": "Point", "coordinates": [ -84.599, 34.013 ] } },
{ "type": "Feature", "properties": { "USAF": "747812", "WBAN": 99999, "STATION NAME": "COBB CO MCCOLLUM FLD", "CTRY": "US", "STATE": "GA", "ICAO": "KRYY", "LAT": 34.013, "LON": -84.599, "ELEV(M)": 317.0, "BEGIN": 20020430, "END": 20051231 }, "geometry": { "type": "Point", "coordinates": [ -84.599, 34.013 ] } },
{ "type": "Feature", "properties": { "USAF": "749011", "WBAN": 99999, "STATION NAME": "LA GRANGE GA/GALLOWAY APT FAA", "CTRY": "US", "STATE": "GA", "ICAO": "GA33", "LAT": 33.016, "LON": -85.066, "ELEV(M)": 216.0, "BEGIN": 19530701, "END": 19550101 }, "geometry": { "type": "Point", "coordinates": [ -85.066, 33.016 ] } },
{ "type": "Feature", "properties": { "USAF": "749078", "WBAN": 99999, "STATION NAME": "BAINBRIDGE/AAF GA", "CTRY": "US", "STATE": "GA", "ICAO": "BGE", "LAT": 30.983, "LON": -84.633, "ELEV(M)": 40.0, "BEGIN": 19420917, "END": 19450108 }, "geometry": { "type": "Point", "coordinates": [ -84.633, 30.983 ] } },
{ "type": "Feature", "properties": { "USAF": "749081", "WBAN": 99999, "STATION NAME": "AUGUSTA/DANIEL FIELD GA", "CTRY": "US", "STATE": "GA", "ICAO": "DNL", "LAT": 33.466, "LON": -82.033, "ELEV(M)": 134.0, "BEGIN": 19420703, "END": 19430602 }, "geometry": { "type": "Point", "coordinates": [ -82.033, 33.466 ] } },
{ "type": "Feature", "properties": { "USAF": "749085", "WBAN": 99999, "STATION NAME": "HARRIS NECK AAF", "CTRY": "US", "STATE": "GA", "ICAO": null, "LAT": 31.633, "LON": -81.267, "ELEV(M)": 6.0, "BEGIN": 19440501, "END": 19441214 }, "geometry": { "type": "Point", "coordinates": [ -81.267, 31.633 ] } },
{ "type": "Feature", "properties": { "USAF": "749088", "WBAN": 99999, "STATION NAME": "THOMASVILLE GEORGIA AAF", "CTRY": "US", "STATE": "GA", "ICAO": "TVI", "LAT": 30.9, "LON": -83.85, "ELEV(M)": 74.0, "BEGIN": 19440216, "END": 19451010 }, "geometry": { "type": "Point", "coordinates": [ -83.85, 30.9 ] } },
{ "type": "Feature", "properties": { "USAF": "749483", "WBAN": 394, "STATION NAME": "JACKSON COUNTY AIRPORT", "CTRY": "US", "STATE": "GA", "ICAO": "K19A", "LAT": 34.147, "LON": -83.561, "ELEV(M)": 290.2, "BEGIN": 20110927, "END": 20221231 }, "geometry": { "type": "Point", "coordinates": [ -83.561, 34.147 ] } },
{ "type": "Feature", "properties": { "USAF": "749483", "WBAN": 99999, "STATION NAME": "JACKSON CO", "CTRY": "US", "STATE": "GA", "ICAO": null, "LAT": 34.174, "LON": -83.561, "ELEV(M)": 289.9, "BEGIN": 19450201, "END": 19451221 }, "geometry": { "type": "Point", "coordinates": [ -83.561, 34.174 ] } },
{ "type": "Feature", "properties": { "USAF": "749496", "WBAN": 99999, "STATION NAME": "MOGUL", "CTRY": "US", "STATE": "GA", "ICAO": null, "LAT": 32.833, "LON": -83.567, "ELEV(M)": 141.0, "BEGIN": 19480101, "END": 19481201 }, "geometry": { "type": "Point", "coordinates": [ -83.567, 32.833 ] } },
{ "type": "Feature", "properties": { "USAF": "787804", "WBAN": 99999, "STATION NAME": "SAVANAH GA/HUNTER FLD", "CTRY": "US", "STATE": "GA", "ICAO": "SVN", "LAT": -32.133, "LON": -81.2, "ELEV(M)": 13.0, "BEGIN": 19480101, "END": 19481201 }, "geometry": { "type": "Point", "coordinates": [ -81.2, -32.133 ] } },
{ "type": "Feature", "properties": { "USAF": "994830", "WBAN": 99999, "STATION NAME": "U.S. NAVY TOWER R2", "CTRY": "US", "STATE": "GA", "ICAO": null, "LAT": 31.38, "LON": -80.57, "ELEV(M)": 50.0, "BEGIN": 20040608, "END": 20081221 }, "geometry": { "type": "Point", "coordinates": [ -80.57, 31.38 ] } },
{ "type": "Feature", "properties": { "USAF": "994860", "WBAN": 99999, "STATION NAME": "U.S. NAVY TOWER R8", "CTRY": "US", "STATE": "GA", "ICAO": null, "LAT": 31.633, "LON": -79.917, "ELEV(M)": 34.0, "BEGIN": 20040608, "END": 20080415 }, "geometry": { "type": "Point", "coordinates": [ -79.917, 31.633 ] } },
{ "type": "Feature", "properties": { "USAF": "997301", "WBAN": 99999, "STATION NAME": "FT PALASKI", "CTRY": "US", "STATE": "GA", "ICAO": null, "LAT": 32.03, "LON": -80.9, "ELEV(M)": 6.0, "BEGIN": 20080101, "END": 20221231 }, "geometry": { "type": "Point", "coordinates": [ -80.9, 32.03 ] } },
{ "type": "Feature", "properties": { "USAF": "998010", "WBAN": 99999, "STATION NAME": "SAPELO ISLAND RESERVE", "CTRY": "US", "STATE": "GA", "ICAO": null, "LAT": 31.417, "LON": -81.283, "ELEV(M)": 5.0, "BEGIN": 20080101, "END": 20221231 }, "geometry": { "type": "Point", "coordinates": [ -81.283, 31.417 ] } },
{ "type": "Feature", "properties": { "USAF": "999999", "WBAN": 3813, "STATION NAME": "MACON MIDDLE GA REGIONAL AP", "CTRY": "US", "STATE": "GA", "ICAO": "KMCN", "LAT": 32.685, "LON": -83.653, "ELEV(M)": 110.3, "BEGIN": 19481201, "END": 19721231 }, "geometry": { "type": "Point", "coordinates": [ -83.653, 32.685 ] } },
{ "type": "Feature", "properties": { "USAF": "999999", "WBAN": 3820, "STATION NAME": "AUGUSTA BUSH FIELD", "CTRY": "US", "STATE": "GA", "ICAO": "KAGS", "LAT": 33.364, "LON": -81.963, "ELEV(M)": 45.1, "BEGIN": 19510101, "END": 19721231 }, "geometry": { "type": "Point", "coordinates": [ -81.963, 33.364 ] } },
{ "type": "Feature", "properties": { "USAF": "999999", "WBAN": 3822, "STATION NAME": "SAVANNAH INTL AP", "CTRY": "US", "STATE": "GA", "ICAO": "KSAV", "LAT": 32.13, "LON": -81.21, "ELEV(M)": 15.5, "BEGIN": 19650101, "END": 19721231 }, "geometry": { "type": "Point", "coordinates": [ -81.21, 32.13 ] } },
{ "type": "Feature", "properties": { "USAF": "999999", "WBAN": 3874, "STATION NAME": "FORT BENNING MCKENNA", "CTRY": "US", "STATE": "GA", "ICAO": "MKF", "LAT": 32.367, "LON": -84.8, "ELEV(M)": 134.1, "BEGIN": 19640302, "END": 19650722 }, "geometry": { "type": "Point", "coordinates": [ -84.8, 32.367 ] } },
{ "type": "Feature", "properties": { "USAF": "999999", "WBAN": 13815, "STATION NAME": "ALBANY NAVAL AIR STN", "CTRY": "US", "STATE": "GA", "ICAO": null, "LAT": 31.583, "LON": -84.117, "ELEV(M)": 66.1, "BEGIN": 19720101, "END": 19721231 }, "geometry": { "type": "Point", "coordinates": [ -84.117, 31.583 ] } },
{ "type": "Feature", "properties": { "USAF": "999999", "WBAN": 13829, "STATION NAME": "FORT BENNING LAWSON", "CTRY": "US", "STATE": "GA", "ICAO": "KLSF", "LAT": 32.35, "LON": -85.0, "ELEV(M)": 70.7, "BEGIN": 19710101, "END": 19710101 }, "geometry": { "type": "Point", "coordinates": [ -85.0, 32.35 ] } },
{ "type": "Feature", "properties": { "USAF": "999999", "WBAN": 13853, "STATION NAME": "SAVANNAH CHATHAM FIELD AAF", "CTRY": "US", "STATE": "GA", "ICAO": null, "LAT": 32.133, "LON": -81.2, "ELEV(M)": 15.8, "BEGIN": 19490520, "END": 19501001 }, "geometry": { "type": "Point", "coordinates": [ -81.2, 32.133 ] } },
{ "type": "Feature", "properties": { "USAF": "999999", "WBAN": 13864, "STATION NAME": "MARIETTA DOBBINS AAF", "CTRY": "US", "STATE": "GA", "ICAO": "KMGE", "LAT": 33.917, "LON": -84.517, "ELEV(M)": 325.5, "BEGIN": 19710101, "END": 19710101 }, "geometry": { "type": "Point", "coordinates": [ -84.517, 33.917 ] } },
{ "type": "Feature", "properties": { "USAF": "999999", "WBAN": 13869, "STATION NAME": "ALBANY MUNICIPAL AP", "CTRY": "US", "STATE": "GA", "ICAO": "KABY", "LAT": 31.536, "LON": -84.194, "ELEV(M)": 58.8, "BEGIN": 19480101, "END": 19550101 }, "geometry": { "type": "Point", "coordinates": [ -84.194, 31.536 ] } },
{ "type": "Feature", "properties": { "USAF": "999999", "WBAN": 13870, "STATION NAME": "ALMA BACON COUNTY AP", "CTRY": "US", "STATE": "GA", "ICAO": "KAMG", "LAT": 31.536, "LON": -82.507, "ELEV(M)": 62.8, "BEGIN": 19490101, "END": 19590101 }, "geometry": { "type": "Point", "coordinates": [ -82.507, 31.536 ] } },
{ "type": "Feature", "properties": { "USAF": "999999", "WBAN": 13873, "STATION NAME": "ATHENS MUNICIPAL ARPT", "CTRY": "US", "STATE": "GA", "ICAO": "KAHN", "LAT": 33.948, "LON": -83.328, "ELEV(M)": 244.4, "BEGIN": 19550901, "END": 19721231 }, "geometry": { "type": "Point", "coordinates": [ -83.328, 33.948 ] } },
{ "type": "Feature", "properties": { "USAF": "999999", "WBAN": 13874, "STATION NAME": "ATLANTA HARTSFIELD INTL AP", "CTRY": "US", "STATE": "GA", "ICAO": "KATL", "LAT": 33.63, "LON": -84.442, "ELEV(M)": 312.7, "BEGIN": 19450101, "END": 19721231 }, "geometry": { "type": "Point", "coordinates": [ -84.442, 33.63 ] } },
{ "type": "Feature", "properties": { "USAF": "999999", "WBAN": 13878, "STATION NAME": "BRUNSWICK MALCOLM MCKINNON AP", "CTRY": "US", "STATE": "GA", "ICAO": "KSSI", "LAT": 31.152, "LON": -81.391, "ELEV(M)": 7.3, "BEGIN": 19481201, "END": 19550101 }, "geometry": { "type": "Point", "coordinates": [ -81.391, 31.152 ] } },
{ "type": "Feature", "properties": { "USAF": "999999", "WBAN": 53846, "STATION NAME": "KINGS BAY/NAVAL STATION", "CTRY": "US", "STATE": "GA", "ICAO": null, "LAT": 30.8, "LON": -81.5, "ELEV(M)": 15.2, "BEGIN": 19960702, "END": 19971231 }, "geometry": { "type": "Point", "coordinates": [ -81.5, 30.8 ] } },
{ "type": "Feature", "properties": { "USAF": "999999", "WBAN": 53882, "STATION NAME": "KNOXVILLE ISLAND AP", "CTRY": "US", "STATE": "GA", "ICAO": "KBGE", "LAT": 30.983, "LON": -84.633, "ELEV(M)": 43.0, "BEGIN": 20020602, "END": 20051231 }, "geometry": { "type": "Point", "coordinates": [ -84.633, 30.983 ] } },
{ "type": "Feature", "properties": { "USAF": "999999", "WBAN": 63828, "STATION NAME": "NEWTON 8 W", "CTRY": "US", "STATE": "GA", "ICAO": null, "LAT": 31.313, "LON": -84.471, "ELEV(M)": 53.6, "BEGIN": 20020827, "END": 20221231 }, "geometry": { "type": "Point", "coordinates": [ -84.471, 31.313 ] } },
{ "type": "Feature", "properties": { "USAF": "999999", "WBAN": 63829, "STATION NAME": "NEWTON 11 SW", "CTRY": "US", "STATE": "GA", "ICAO": null, "LAT": 31.192, "LON": -84.447, "ELEV(M)": 47.6, "BEGIN": 20020827, "END": 20221231 }, "geometry": { "type": "Point", "coordinates": [ -84.447, 31.192 ] } },
{ "type": "Feature", "properties": { "USAF": "999999", "WBAN": 63850, "STATION NAME": "WATKINSVILLE 5 SSE", "CTRY": "US", "STATE": "GA", "ICAO": null, "LAT": 33.784, "LON": -83.39, "ELEV(M)": 225.9, "BEGIN": 20040430, "END": 20221231 }, "geometry": { "type": "Point", "coordinates": [ -83.39, 33.784 ] } },
{ "type": "Feature", "properties": { "USAF": "999999", "WBAN": 63856, "STATION NAME": "BRUNSWICK 23 S", "CTRY": "US", "STATE": "GA", "ICAO": null, "LAT": 30.808, "LON": -81.46, "ELEV(M)": 7.6, "BEGIN": 20041215, "END": 20221231 }, "geometry": { "type": "Point", "coordinates": [ -81.46, 30.808 ] } },
{ "type": "Feature", "properties": { "USAF": "999999", "WBAN": 93801, "STATION NAME": "ROME R B RUSSELL AP", "CTRY": "US", "STATE": "GA", "ICAO": "KRMG", "LAT": 34.348, "LON": -85.161, "ELEV(M)": 196.3, "BEGIN": 19480101, "END": 19771222 }, "geometry": { "type": "Point", "coordinates": [ -85.161, 34.348 ] } },
{ "type": "Feature", "properties": { "USAF": "999999", "WBAN": 93830, "STATION NAME": "ATLANTA NAS", "CTRY": "US", "STATE": "GA", "ICAO": "NCQ", "LAT": 33.867, "LON": -84.3, "ELEV(M)": 302.1, "BEGIN": 19450201, "END": 19590225 }, "geometry": { "type": "Point", "coordinates": [ -84.3, 33.867 ] } },
{ "type": "Feature", "properties": { "USAF": "999999", "WBAN": 93836, "STATION NAME": "BRUNSWICK GLYNN CO A", "CTRY": "US", "STATE": "GA", "ICAO": "NEA", "LAT": 31.25, "LON": -81.467, "ELEV(M)": 9.1, "BEGIN": 19450201, "END": 19740731 }, "geometry": { "type": "Point", "coordinates": [ -81.467, 31.25 ] } },
{ "type": "Feature", "properties": { "USAF": "999999", "WBAN": 93840, "STATION NAME": "ST SIMONS ISLAND NAS", "CTRY": "US", "STATE": "GA", "ICAO": null, "LAT": 31.167, "LON": -81.4, "ELEV(M)": 3.0, "BEGIN": 19450501, "END": 19470420 }, "geometry": { "type": "Point", "coordinates": [ -81.4, 31.167 ] } },
{ "type": "Feature", "properties": { "USAF": "999999", "WBAN": 93842, "STATION NAME": "COLUMBUS MUSCOGEE COUNTY ARPT", "CTRY": "US", "STATE": "GA", "ICAO": "KCSG", "LAT": 32.516, "LON": -84.942, "ELEV(M)": 120.1, "BEGIN": 19530101, "END": 19711231 }, "geometry": { "type": "Point", "coordinates": [ -84.942, 32.516 ] } },
{ "type": "Feature", "properties": { "USAF": "999999", "WBAN": 93845, "STATION NAME": "VALDOSTA WB AIRPORT", "CTRY": "US", "STATE": "GA", "ICAO": "KVLD", "LAT": 30.783, "LON": -83.277, "ELEV(M)": 60.4, "BEGIN": 19720101, "END": 19721231 }, "geometry": { "type": "Point", "coordinates": [ -83.277, 30.783 ] } },
{ "type": "Feature", "properties": { "USAF": "A00011", "WBAN": 63848, "STATION NAME": "CHEROKEE COUNTY AIRPORT", "CTRY": "US", "STATE": "GA", "ICAO": "K47A", "LAT": 34.311, "LON": -84.424, "ELEV(M)": 371.6, "BEGIN": 20060101, "END": 20111003 }, "geometry": { "type": "Point", "coordinates": [ -84.424, 34.311 ] } }
]
}
