{
"type": "FeatureCollection",
"name": "KS",
"crs": { "type": "name", "properties": { "name": "urn:ogc:def:crs:OGC:1.3:CRS84" } },
"features": [
{ "type": "Feature", "properties": { "USAF": "720338", "WBAN": 99999, "STATION NAME": "FORT SCOTT MUNI", "CTRY": "US", "STATE": "KS", "ICAO": "KFSK", "LAT": 37.798, "LON": -94.769, "ELEV(M)": 279.8, "BEGIN": 20220519, "END": 20221231 }, "geometry": { "type": "Point", "coordinates": [ -94.769, 37.798 ] } },
{ "type": "Feature", "properties": { "USAF": "720417", "WBAN": 99999, "STATION NAME": "JOHNSON (STANTON CO MUNI)", "CTRY": "US", "STATE": "KS", "ICAO": "K2K3", "LAT": 37.583, "LON": -101.733, "ELEV(M)": 1013.5, "BEGIN": 20160302, "END": 20221231 }, "geometry": { "type": "Point", "coordinates": [ -101.733, 37.583 ] } },
{ "type": "Feature", "properties": { "USAF": "720421", "WBAN": 3043, "STATION NAME": "ATWOOD-RAWLNS CO CTY CO AP", "CTRY": "US", "STATE": "KS", "ICAO": "KADT", "LAT": 39.84, "LON": -101.042, "ELEV(M)": 911.7, "BEGIN": 20201015, "END": 20221231 }, "geometry": { "type": "Point", "coordinates": [ -101.042, 39.84 ] } },
{ "type": "Feature", "properties": { "USAF": "720422", "WBAN": 3037, "STATION NAME": "SHALTZ FIELD AIRPORT", "CTRY": "US", "STATE": "KS", "ICAO": "KCBK", "LAT": 39.428, "LON": -101.046, "ELEV(M)": 971.1, "BEGIN": 20120403, "END": 20221231 }, "geometry": { "type": "Point", "coordinates": [ -101.046, 39.428 ] } },
{ "type": "Feature", "properties": { "USAF": "720423", "WBAN": 99999, "STATION NAME": "WELLINGTON MUNI", "CTRY": "US", "STATE": "KS", "ICAO": "KEGT", "LAT": 37.324, "LON": -97.388, "ELEV(M)": 388.0, "BEGIN": 20220130, "END": 20221231 }, "geometry": { "type": "Point", "coordinates": [ -97.388, 37.324 ] } },
{ "type": "Feature", "properties": { "USAF": "720425", "WBAN": 99999, "STATION NAME": "HUGOTON MUNI", "CTRY": "US", "STATE": "KS", "ICAO": "KHQG", "LAT": 37.163, "LON": -101.371, "ELEV(M)": 954.9, "BEGIN": 20151020, "END": 20221231 }, "geometry": { "type": "Point", "coordinates": [ -101.371, 37.163 ] } },
{ "type": "Feature", "properties": { "USAF": "720426", "WBAN": 141, "STATION NAME": "INDEPENDENT MUNICIPAL AIRPORT", "CTRY": "US", "STATE": "KS", "ICAO": "KIDP", "LAT": 37.158, "LON": -95.778, "ELEV(M)": 251.2, "BEGIN": 20100604, "END": 20221231 }, "geometry": { "type": "Point", "coordinates": [ -95.778, 37.158 ] } },
{ "type": "Feature", "properties": { "USAF": "720431", "WBAN": 99999, "STATION NAME": "LARNED PAWNEE CO", "CTRY": "US", "STATE": "KS", "ICAO": "KLQR", "LAT": 38.209, "LON": -99.086, "ELEV(M)": 613.0, "BEGIN": 20170615, "END": 20180828 }, "geometry": { "type": "Point", "coordinates": [ -99.086, 38.209 ] } },
{ "type": "Feature", "properties": { "USAF": "720432", "WBAN": 99999, "STATION NAME": "MCPHERSON", "CTRY": "US", "STATE": "KS", "ICAO": "KMPR", "LAT": 38.352, "LON": -97.691, "ELEV(M)": 456.3, "BEGIN": 20220509, "END": 20221231 }, "geometry": { "type": "Point", "coordinates": [ -97.691, 38.352 ] } },
{ "type": "Feature", "properties": { "USAF": "720433", "WBAN": 99999, "STATION NAME": "NORTON MUNI", "CTRY": "US", "STATE": "KS", "ICAO": "KNRN", "LAT": 39.85, "LON": -99.895, "ELEV(M)": 726.3, "BEGIN": 20181017, "END": 20221231 }, "geometry": { "type": "Point", "coordinates": [ -99.895, 39.85 ] } },
{ "type": "Feature", "properties": { "USAF": "720434", "WBAN": 99999, "STATION NAME": "OAKLEY MUNI", "CTRY": "US", "STATE": "KS", "ICAO": "KOEL", "LAT": 39.11, "LON": -100.816, "ELEV(M)": 928.1, "BEGIN": 20190425, "END": 20221231 }, "geometry": { "type": "Point", "coordinates": [ -100.816, 39.11 ] } },
{ "type": "Feature", "properties": { "USAF": "720436", "WBAN": 142, "STATION NAME": "ATKINSON MUNICIPAL AIRPORT", "CTRY": "US", "STATE": "KS", "ICAO": "KPTS", "LAT": 37.45, "LON": -94.733, "ELEV(M)": 290.2, "BEGIN": 20100113, "END": 20221231 }, "geometry": { "type": "Point", "coordinates": [ -94.733, 37.45 ] } },
{ "type": "Feature", "properties": { "USAF": "720437", "WBAN": 143, "STATION NAME": "CHEYENNE COUNTY MUNICIPAL AIRPORT", "CTRY": "US", "STATE": "KS", "ICAO": "KSYF", "LAT": 39.767, "LON": -101.8, "ELEV(M)": 1040.3, "BEGIN": 20120423, "END": 20221231 }, "geometry": { "type": "Point", "coordinates": [ -101.8, 39.767 ] } },
{ "type": "Feature", "properties": { "USAF": "720438", "WBAN": 99999, "STATION NAME": "SCOTT CITY MUNI", "CTRY": "US", "STATE": "KS", "ICAO": "KTQK", "LAT": 38.474, "LON": -100.885, "ELEV(M)": 903.1, "BEGIN": 20190429, "END": 20221231 }, "geometry": { "type": "Point", "coordinates": [ -100.885, 38.474 ] } },
{ "type": "Feature", "properties": { "USAF": "720439", "WBAN": 99999, "STATION NAME": "ULYSSES", "CTRY": "US", "STATE": "KS", "ICAO": "KULS", "LAT": 37.604, "LON": -101.374, "ELEV(M)": 934.8, "BEGIN": 20180524, "END": 20221231 }, "geometry": { "type": "Point", "coordinates": [ -101.374, 37.604 ] } },
{ "type": "Feature", "properties": { "USAF": "720781", "WBAN": 99999, "STATION NAME": "LYONS RICE CO MUNI", "CTRY": "US", "STATE": "KS", "ICAO": "KLYO", "LAT": 38.343, "LON": -98.227, "ELEV(M)": 515.4, "BEGIN": 20180719, "END": 20221202 }, "geometry": { "type": "Point", "coordinates": [ -98.227, 38.343 ] } },
{ "type": "Feature", "properties": { "USAF": "722005", "WBAN": 99999, "STATION NAME": "COFFEY CO", "CTRY": "US", "STATE": "KS", "ICAO": "KUKL", "LAT": 38.302, "LON": -95.725, "ELEV(M)": 357.5, "BEGIN": 20050427, "END": 20221231 }, "geometry": { "type": "Point", "coordinates": [ -95.725, 38.302 ] } },
{ "type": "Feature", "properties": { "USAF": "722819", "WBAN": 53989, "STATION NAME": "MULTI PURPOSE RANGE", "CTRY": "US", "STATE": "KS", "ICAO": "KAMM", "LAT": 39.294, "LON": -96.926, "ELEV(M)": 385.3, "BEGIN": 20060601, "END": 20170110 }, "geometry": { "type": "Point", "coordinates": [ -96.926, 39.294 ] } },
{ "type": "Feature", "properties": { "USAF": "724468", "WBAN": 3967, "STATION NAME": "JOHNSON CO EXECUTIVE ARPT", "CTRY": "US", "STATE": "KS", "ICAO": "KOJC", "LAT": 38.85, "LON": -94.739, "ELEV(M)": 327.3, "BEGIN": 20060101, "END": 20221231 }, "geometry": { "type": "Point", "coordinates": [ -94.739, 38.85 ] } },
{ "type": "Feature", "properties": { "USAF": "724468", "WBAN": 99999, "STATION NAME": "JOHNSON CO EXECUTIVE", "CTRY": "US", "STATE": "KS", "ICAO": "KOJC", "LAT": 38.85, "LON": -94.733, "ELEV(M)": 334.0, "BEGIN": 19730101, "END": 19971231 }, "geometry": { "type": "Point", "coordinates": [ -94.733, 38.85 ] } },
{ "type": "Feature", "properties": { "USAF": "724475", "WBAN": 93909, "STATION NAME": "NEW CENTURY AIRCENTER ARPT", "CTRY": "US", "STATE": "KS", "ICAO": "KIXD", "LAT": 38.822, "LON": -94.89, "ELEV(M)": 321.5, "BEGIN": 19781124, "END": 20221231 }, "geometry": { "type": "Point", "coordinates": [ -94.89, 38.822 ] } },
{ "type": "Feature", "properties": { "USAF": "724475", "WBAN": 99999, "STATION NAME": "JOHNSON CO. INDUSTR", "CTRY": "US", "STATE": "KS", "ICAO": "KIXD", "LAT": 38.833, "LON": -94.883, "ELEV(M)": 331.0, "BEGIN": 20000101, "END": 20031231 }, "geometry": { "type": "Point", "coordinates": [ -94.883, 38.833 ] } },
{ "type": "Feature", "properties": { "USAF": "724500", "WBAN": 3928, "STATION NAME": "WICHITA EISENHOWER NATIONAL", "CTRY": "US", "STATE": "KS", "ICAO": "KICT", "LAT": 37.648, "LON": -97.43, "ELEV(M)": 401.7, "BEGIN": 19730101, "END": 20221231 }, "geometry": { "type": "Point", "coordinates": [ -97.43, 37.648 ] } },
{ "type": "Feature", "properties": { "USAF": "724502", "WBAN": 13932, "STATION NAME": "STROTHER FIELD AIRPORT", "CTRY": "US", "STATE": "KS", "ICAO": "KWLD", "LAT": 37.165, "LON": -97.035, "ELEV(M)": 351.0, "BEGIN": 20060101, "END": 20221231 }, "geometry": { "type": "Point", "coordinates": [ -97.035, 37.165 ] } },
{ "type": "Feature", "properties": { "USAF": "724502", "WBAN": 99999, "STATION NAME": "STROTHER FLD", "CTRY": "US", "STATE": "KS", "ICAO": "KWLD", "LAT": 37.167, "LON": -97.033, "ELEV(M)": 354.0, "BEGIN": 19970123, "END": 19971231 }, "geometry": { "type": "Point", "coordinates": [ -97.033, 37.167 ] } },
{ "type": "Feature", "properties": { "USAF": "724504", "WBAN": 3974, "STATION NAME": "COLONEL JAMES JABARA ARPT", "CTRY": "US", "STATE": "KS", "ICAO": "KAAO", "LAT": 37.75, "LON": -97.219, "ELEV(M)": 428.0, "BEGIN": 20060101, "END": 20221231 }, "geometry": { "type": "Point", "coordinates": [ -97.219, 37.75 ] } },
{ "type": "Feature", "properties": { "USAF": "724504", "WBAN": 99999, "STATION NAME": "COL JAMES JABARA", "CTRY": "US", "STATE": "KS", "ICAO": "KAAO", "LAT": 37.75, "LON": -97.217, "ELEV(M)": 433.0, "BEGIN": 19870710, "END": 19971231 }, "geometry": { "type": "Point", "coordinates": [ -97.217, 37.75 ] } },
{ "type": "Feature", "properties": { "USAF": "724505", "WBAN": 3923, "STATION NAME": "MCCONNELL AFB AIRPORT", "CTRY": "US", "STATE": "KS", "ICAO": "KIAB", "LAT": 37.617, "LON": -97.267, "ELEV(M)": 417.9, "BEGIN": 19531201, "END": 20221231 }, "geometry": { "type": "Point", "coordinates": [ -97.267, 37.617 ] } },
{ "type": "Feature", "properties": { "USAF": "724505", "WBAN": 99999, "STATION NAME": "MC CONNELL AFB", "CTRY": "US", "STATE": "KS", "ICAO": "KIAB", "LAT": 37.617, "LON": -97.267, "ELEV(M)": 418.0, "BEGIN": 20000103, "END": 20041231 }, "geometry": { "type": "Point", "coordinates": [ -97.267, 37.617 ] } },
{ "type": "Feature", "properties": { "USAF": "724506", "WBAN": 13986, "STATION NAME": "HUTCHINSON MUNICIPAL ARPT", "CTRY": "US", "STATE": "KS", "ICAO": "KHUT", "LAT": 38.068, "LON": -97.861, "ELEV(M)": 463.2, "BEGIN": 19450201, "END": 20221231 }, "geometry": { "type": "Point", "coordinates": [ -97.861, 38.068 ] } },
{ "type": "Feature", "properties": { "USAF": "724506", "WBAN": 99999, "STATION NAME": "HUTCHINSON MUNI", "CTRY": "US", "STATE": "KS", "ICAO": "KHUT", "LAT": 38.067, "LON": -97.85, "ELEV(M)": 470.0, "BEGIN": 20000101, "END": 20031231 }, "geometry": { "type": "Point", "coordinates": [ -97.85, 38.067 ] } },
{ "type": "Feature", "properties": { "USAF": "724507", "WBAN": 13981, "STATION NAME": "CHANUTE MARTIN JOHNSON APT", "CTRY": "US", "STATE": "KS", "ICAO": "KCNU", "LAT": 37.671, "LON": -95.485, "ELEV(M)": 298.8, "BEGIN": 19730101, "END": 20221231 }, "geometry": { "type": "Point", "coordinates": [ -95.485, 37.671 ] } },
{ "type": "Feature", "properties": { "USAF": "724508", "WBAN": 3997, "STATION NAME": "LAWRENCE MUNICIPAL AIRPORT", "CTRY": "US", "STATE": "KS", "ICAO": "KLWC", "LAT": 39.008, "LON": -95.212, "ELEV(M)": 251.9, "BEGIN": 20060101, "END": 20221231 }, "geometry": { "type": "Point", "coordinates": [ -95.212, 39.008 ] } },
{ "type": "Feature", "properties": { "USAF": "724508", "WBAN": 99999, "STATION NAME": "LAWRENCE MUNI", "CTRY": "US", "STATE": "KS", "ICAO": "KLWC", "LAT": 39.011, "LON": -95.217, "ELEV(M)": 254.0, "BEGIN": 19970123, "END": 19971231 }, "geometry": { "type": "Point", "coordinates": [ -95.217, 39.011 ] } },
{ "type": "Feature", "properties": { "USAF": "724509", "WBAN": 53939, "STATION NAME": "NEWTON-CITY-COUNTY AIRPORT", "CTRY": "US", "STATE": "KS", "ICAO": "KEWK", "LAT": 38.068, "LON": -97.275, "ELEV(M)": 467.0, "BEGIN": 20060101, "END": 20221231 }, "geometry": { "type": "Point", "coordinates": [ -97.275, 38.068 ] } },
{ "type": "Feature", "properties": { "USAF": "724509", "WBAN": 99999, "STATION NAME": "NEWTON CITY CO", "CTRY": "US", "STATE": "KS", "ICAO": "KEWK", "LAT": 38.058, "LON": -97.267, "ELEV(M)": 467.0, "BEGIN": 19920408, "END": 19971231 }, "geometry": { "type": "Point", "coordinates": [ -97.267, 38.058 ] } },
{ "type": "Feature", "properties": { "USAF": "724510", "WBAN": 13985, "STATION NAME": "DODGE CITY REGIONAL AIRPORT", "CTRY": "US", "STATE": "KS", "ICAO": "KDDC", "LAT": 37.771, "LON": -99.969, "ELEV(M)": 785.6, "BEGIN": 19430419, "END": 20221231 }, "geometry": { "type": "Point", "coordinates": [ -99.969, 37.771 ] } },
{ "type": "Feature", "properties": { "USAF": "724515", "WBAN": 23064, "STATION NAME": "GARDEN CITY REGIONAL ARPT", "CTRY": "US", "STATE": "KS", "ICAO": "KGCK", "LAT": 37.922, "LON": -100.724, "ELEV(M)": 877.1, "BEGIN": 19430201, "END": 20221231 }, "geometry": { "type": "Point", "coordinates": [ -100.724, 37.922 ] } },
{ "type": "Feature", "properties": { "USAF": "724515", "WBAN": 99999, "STATION NAME": "GARDEN CITY RGNL", "CTRY": "US", "STATE": "KS", "ICAO": "KGCK", "LAT": 37.917, "LON": -100.717, "ELEV(M)": 881.0, "BEGIN": 20000101, "END": 20031231 }, "geometry": { "type": "Point", "coordinates": [ -100.717, 37.917 ] } },
{ "type": "Feature", "properties": { "USAF": "724516", "WBAN": 23020, "STATION NAME": "LIBERAL MUNICIPAL AIRPORT", "CTRY": "US", "STATE": "KS", "ICAO": "KLBL", "LAT": 37.05, "LON": -100.967, "ELEV(M)": 875.7, "BEGIN": 20060101, "END": 20221231 }, "geometry": { "type": "Point", "coordinates": [ -100.967, 37.05 ] } },
{ "type": "Feature", "properties": { "USAF": "724516", "WBAN": 99999, "STATION NAME": "LIBERAL MUNI", "CTRY": "US", "STATE": "KS", "ICAO": "KLBL", "LAT": 37.033, "LON": -100.95, "ELEV(M)": 879.0, "BEGIN": 19430618, "END": 19971231 }, "geometry": { "type": "Point", "coordinates": [ -100.95, 37.033 ] } },
{ "type": "Feature", "properties": { "USAF": "724517", "WBAN": 13940, "STATION NAME": "GREAT BEND MUNICIPAL ARPT", "CTRY": "US", "STATE": "KS", "ICAO": "KGBD", "LAT": 38.35, "LON": -98.867, "ELEV(M)": 573.0, "BEGIN": 20060101, "END": 20221231 }, "geometry": { "type": "Point", "coordinates": [ -98.867, 38.35 ] } },
{ "type": "Feature", "properties": { "USAF": "724517", "WBAN": 99999, "STATION NAME": "GREAT BEND MUNI", "CTRY": "US", "STATE": "KS", "ICAO": "KGBD", "LAT": 38.35, "LON": -98.867, "ELEV(M)": 575.0, "BEGIN": 19430801, "END": 19971231 }, "geometry": { "type": "Point", "coordinates": [ -98.867, 38.35 ] } },
{ "type": "Feature", "properties": { "USAF": "724518", "WBAN": 3968, "STATION NAME": "HAYS REGIONAL AIRPORT", "CTRY": "US", "STATE": "KS", "ICAO": "KHYS", "LAT": 38.85, "LON": -99.267, "ELEV(M)": 609.0, "BEGIN": 20060101, "END": 20221231 }, "geometry": { "type": "Point", "coordinates": [ -99.267, 38.85 ] } },
{ "type": "Feature", "properties": { "USAF": "724518", "WBAN": 99999, "STATION NAME": "HAYS RGNL", "CTRY": "US", "STATE": "KS", "ICAO": "KHYS", "LAT": 38.842, "LON": -99.273, "ELEV(M)": 609.0, "BEGIN": 19800825, "END": 19971231 }, "geometry": { "type": "Point", "coordinates": [ -99.273, 38.842 ] } },
{ "type": "Feature", "properties": { "USAF": "724519", "WBAN": 93967, "STATION NAME": "COFFEYVILLE MUNICIPAL ARPT", "CTRY": "US", "STATE": "KS", "ICAO": "KCFV", "LAT": 37.091, "LON": -95.573, "ELEV(M)": 227.4, "BEGIN": 20060101, "END": 20221231 }, "geometry": { "type": "Point", "coordinates": [ -95.573, 37.091 ] } },
{ "type": "Feature", "properties": { "USAF": "724519", "WBAN": 99999, "STATION NAME": "COFFEYVILLE MUNI", "CTRY": "US", "STATE": "KS", "ICAO": "KCFV", "LAT": 37.1, "LON": -95.567, "ELEV(M)": 230.0, "BEGIN": 19970123, "END": 19971231 }, "geometry": { "type": "Point", "coordinates": [ -95.567, 37.1 ] } },
{ "type": "Feature", "properties": { "USAF": "724520", "WBAN": 3957, "STATION NAME": "MEDICINE LODGE", "CTRY": "US", "STATE": "KS", "ICAO": "KP28", "LAT": 37.284, "LON": -98.553, "ELEV(M)": 467.9, "BEGIN": 19780310, "END": 20221231 }, "geometry": { "type": "Point", "coordinates": [ -98.553, 37.284 ] } },
{ "type": "Feature", "properties": { "USAF": "724550", "WBAN": 13947, "STATION NAME": "MARSHALL ARMY AIRFIELD", "CTRY": "US", "STATE": "KS", "ICAO": "KFRI", "LAT": 39.05, "LON": -96.767, "ELEV(M)": 324.6, "BEGIN": 19380817, "END": 20221231 }, "geometry": { "type": "Point", "coordinates": [ -96.767, 39.05 ] } },
{ "type": "Feature", "properties": { "USAF": "724550", "WBAN": 99999, "STATION NAME": "FT RILEY/MARSHALL A", "CTRY": "US", "STATE": "KS", "ICAO": "KFRI", "LAT": 39.1, "LON": -96.767, "ELEV(M)": 320.0, "BEGIN": 20000103, "END": 20041006 }, "geometry": { "type": "Point", "coordinates": [ -96.767, 39.1 ] } },
{ "type": "Feature", "properties": { "USAF": "724555", "WBAN": 3936, "STATION NAME": "MANHATTAN REGIONAL AIRPORT", "CTRY": "US", "STATE": "KS", "ICAO": "KMHK", "LAT": 39.135, "LON": -96.679, "ELEV(M)": 319.3, "BEGIN": 20060101, "END": 20221231 }, "geometry": { "type": "Point", "coordinates": [ -96.679, 39.135 ] } },
{ "type": "Feature", "properties": { "USAF": "724555", "WBAN": 99999, "STATION NAME": "MANHATTAN RGNL", "CTRY": "US", "STATE": "KS", "ICAO": "KMHK", "LAT": 39.133, "LON": -96.667, "ELEV(M)": 322.0, "BEGIN": 19730101, "END": 19971231 }, "geometry": { "type": "Point", "coordinates": [ -96.667, 39.133 ] } },
{ "type": "Feature", "properties": { "USAF": "724556", "WBAN": 13989, "STATION NAME": "EMPORIA MUNICIPAL AIRPORT", "CTRY": "US", "STATE": "KS", "ICAO": "KEMP", "LAT": 38.329, "LON": -96.195, "ELEV(M)": 366.3, "BEGIN": 19730101, "END": 20221231 }, "geometry": { "type": "Point", "coordinates": [ -96.195, 38.329 ] } },
{ "type": "Feature", "properties": { "USAF": "724556", "WBAN": 99999, "STATION NAME": "EMPORIA MUNI", "CTRY": "US", "STATE": "KS", "ICAO": "KEMP", "LAT": 38.332, "LON": -96.191, "ELEV(M)": 368.0, "BEGIN": 20000101, "END": 20031231 }, "geometry": { "type": "Point", "coordinates": [ -96.191, 38.332 ] } },
{ "type": "Feature", "properties": { "USAF": "724560", "WBAN": 13996, "STATION NAME": "PHILIP BILLARD MUNICIPAL AIRPORT", "CTRY": "US", "STATE": "KS", "ICAO": "KTOP", "LAT": 39.072, "LON": -95.626, "ELEV(M)": 268.1, "BEGIN": 19730101, "END": 20221231 }, "geometry": { "type": "Point", "coordinates": [ -95.626, 39.072 ] } },
{ "type": "Feature", "properties": { "USAF": "724565", "WBAN": 13920, "STATION NAME": "FORBES FIELD AIRPORT", "CTRY": "US", "STATE": "KS", "ICAO": "KFOE", "LAT": 38.941, "LON": -95.651, "ELEV(M)": 315.1, "BEGIN": 19421001, "END": 20221231 }, "geometry": { "type": "Point", "coordinates": [ -95.651, 38.941 ] } },
{ "type": "Feature", "properties": { "USAF": "724565", "WBAN": 99999, "STATION NAME": "FORBES FLD", "CTRY": "US", "STATE": "KS", "ICAO": "KFOE", "LAT": 38.95, "LON": -95.65, "ELEV(M)": 329.0, "BEGIN": 20000101, "END": 20031231 }, "geometry": { "type": "Point", "coordinates": [ -95.65, 38.95 ] } },
{ "type": "Feature", "properties": { "USAF": "724567", "WBAN": 13921, "STATION NAME": "SHERMAN AAF", "CTRY": "US", "STATE": "KS", "ICAO": "KFLV", "LAT": 39.367, "LON": -94.917, "ELEV(M)": 235.0, "BEGIN": 19370203, "END": 19970813 }, "geometry": { "type": "Point", "coordinates": [ -94.917, 39.367 ] } },
{ "type": "Feature", "properties": { "USAF": "724580", "WBAN": 13984, "STATION NAME": "BLOSSER MUNICIPAL AIRPORT", "CTRY": "US", "STATE": "KS", "ICAO": "KCNK", "LAT": 39.551, "LON": -97.651, "ELEV(M)": 444.3, "BEGIN": 19730101, "END": 20221231 }, "geometry": { "type": "Point", "coordinates": [ -97.651, 39.551 ] } },
{ "type": "Feature", "properties": { "USAF": "724585", "WBAN": 93997, "STATION NAME": "RUSSELL MUNICIPAL AIRPORT", "CTRY": "US", "STATE": "KS", "ICAO": "KRSL", "LAT": 38.873, "LON": -98.809, "ELEV(M)": 568.1, "BEGIN": 19430201, "END": 20221231 }, "geometry": { "type": "Point", "coordinates": [ -98.809, 38.873 ] } },
{ "type": "Feature", "properties": { "USAF": "724586", "WBAN": 3919, "STATION NAME": "SALINA MUNICIPAL AIRPORT", "CTRY": "US", "STATE": "KS", "ICAO": "KSLN", "LAT": 38.78, "LON": -97.644, "ELEV(M)": 385.0, "BEGIN": 19730101, "END": 20221231 }, "geometry": { "type": "Point", "coordinates": [ -97.644, 38.78 ] } },
{ "type": "Feature", "properties": { "USAF": "724586", "WBAN": 13922, "STATION NAME": "SALINA MUNI", "CTRY": "US", "STATE": "KS", "ICAO": "KSLN", "LAT": 38.783, "LON": -97.65, "ELEV(M)": 393.0, "BEGIN": 19421101, "END": 19650601 }, "geometry": { "type": "Point", "coordinates": [ -97.65, 38.783 ] } },
{ "type": "Feature", "properties": { "USAF": "724604", "WBAN": 93076, "STATION NAME": "ELKHART-MORTON CO AIRPORT", "CTRY": "US", "STATE": "KS", "ICAO": "KEHA", "LAT": 37.0, "LON": -101.883, "ELEV(M)": 1104.0, "BEGIN": 20060101, "END": 20221231 }, "geometry": { "type": "Point", "coordinates": [ -101.883, 37.0 ] } },
{ "type": "Feature", "properties": { "USAF": "724604", "WBAN": 99999, "STATION NAME": "ELKHART MORTON CO", "CTRY": "US", "STATE": "KS", "ICAO": "KEHA", "LAT": 37.001, "LON": -101.88, "ELEV(M)": 1104.0, "BEGIN": 19920505, "END": 19971231 }, "geometry": { "type": "Point", "coordinates": [ -101.88, 37.001 ] } },
{ "type": "Feature", "properties": { "USAF": "724650", "WBAN": 23065, "STATION NAME": "RENNER FIELD/GOODLAND MINI AIRPORT", "CTRY": "US", "STATE": "KS", "ICAO": "KGLD", "LAT": 39.367, "LON": -101.693, "ELEV(M)": 1110.5, "BEGIN": 19730101, "END": 20221231 }, "geometry": { "type": "Point", "coordinates": [ -101.693, 39.367 ] } },
{ "type": "Feature", "properties": { "USAF": "724655", "WBAN": 93990, "STATION NAME": "HILL CITY MUNICIPAL ARPT", "CTRY": "US", "STATE": "KS", "ICAO": "KHLC", "LAT": 39.374, "LON": -99.83, "ELEV(M)": 667.1, "BEGIN": 19730101, "END": 20221231 }, "geometry": { "type": "Point", "coordinates": [ -99.83, 39.374 ] } },
{ "type": "Feature", "properties": { "USAF": "745430", "WBAN": 93978, "STATION NAME": "PRATT INDUSTRIAL AIRPORT", "CTRY": "US", "STATE": "KS", "ICAO": "KPTT", "LAT": 37.702, "LON": -98.747, "ELEV(M)": 595.0, "BEGIN": 20060101, "END": 20221231 }, "geometry": { "type": "Point", "coordinates": [ -98.747, 37.702 ] } },
{ "type": "Feature", "properties": { "USAF": "745430", "WBAN": 99999, "STATION NAME": "PRATT MUNICIPAL", "CTRY": "US", "STATE": "KS", "ICAO": "KPTT", "LAT": 37.7, "LON": -98.75, "ELEV(M)": 595.0, "BEGIN": 19430801, "END": 20051231 }, "geometry": { "type": "Point", "coordinates": [ -98.75, 37.7 ] } },
{ "type": "Feature", "properties": { "USAF": "745431", "WBAN": 3998, "STATION NAME": "TRI-CITY AIRPORT", "CTRY": "US", "STATE": "KS", "ICAO": "KPPF", "LAT": 37.328, "LON": -95.504, "ELEV(M)": 263.9, "BEGIN": 20060101, "END": 20221231 }, "geometry": { "type": "Point", "coordinates": [ -95.504, 37.328 ] } },
{ "type": "Feature", "properties": { "USAF": "745431", "WBAN": 99999, "STATION NAME": "TRI CITY", "CTRY": "US", "STATE": "KS", "ICAO": "KPPF", "LAT": 37.333, "LON": -95.5, "ELEV(M)": 274.0, "BEGIN": 19961020, "END": 19971231 }, "geometry": { "type": "Point", "coordinates": [ -95.5, 37.333 ] } },
{ "type": "Feature", "properties": { "USAF": "749092", "WBAN": 99999, "STATION NAME": "COFFEYVILLE KANSAS AAF", "CTRY": "US", "STATE": "KS", "ICAO": "CFV", "LAT": 37.1, "LON": -95.583, "ELEV(M)": 227.0, "BEGIN": 19421202, "END": 19451017 }, "geometry": { "type": "Point", "coordinates": [ -95.583, 37.1 ] } },
{ "type": "Feature", "properties": { "USAF": "749094", "WBAN": 99999, "STATION NAME": "HERINGTON MUNI", "CTRY": "US", "STATE": "KS", "ICAO": null, "LAT": 38.7, "LON": -96.817, "ELEV(M)": 455.0, "BEGIN": 19430601, "END": 19451001 }, "geometry": { "type": "Point", "coordinates": [ -96.817, 38.7 ] } },
{ "type": "Feature", "properties": { "USAF": "749097", "WBAN": 99999, "STATION NAME": "WINFIELD KS/STROTNER FLD", "CTRY": "US", "STATE": "KS", "ICAO": "WLD", "LAT": 37.166, "LON": -97.033, "ELEV(M)": 350.0, "BEGIN": 19421216, "END": 19450814 }, "geometry": { "type": "Point", "coordinates": [ -97.033, 37.166 ] } },
{ "type": "Feature", "properties": { "USAF": "749099", "WBAN": 99999, "STATION NAME": "INDEPENDENCE KANSAS AAF", "CTRY": "US", "STATE": "KS", "ICAO": "IDP", "LAT": 37.166, "LON": -95.766, "ELEV(M)": 250.0, "BEGIN": 19430504, "END": 19471017 }, "geometry": { "type": "Point", "coordinates": [ -95.766, 37.166 ] } },
{ "type": "Feature", "properties": { "USAF": "999999", "WBAN": 3037, "STATION NAME": "SHALTZ FIELD AIRPORT", "CTRY": "US", "STATE": "KS", "ICAO": "KCBK", "LAT": 39.428, "LON": -101.046, "ELEV(M)": 971.1, "BEGIN": 20020902, "END": 20050909 }, "geometry": { "type": "Point", "coordinates": [ -101.046, 39.428 ] } },
{ "type": "Feature", "properties": { "USAF": "999999", "WBAN": 3067, "STATION NAME": "OAKLEY 19 SSW", "CTRY": "US", "STATE": "KS", "ICAO": null, "LAT": 38.87, "LON": -100.963, "ELEV(M)": 874.8, "BEGIN": 20051030, "END": 20221231 }, "geometry": { "type": "Point", "coordinates": [ -100.963, 38.87 ] } },
{ "type": "Feature", "properties": { "USAF": "999999", "WBAN": 3877, "STATION NAME": "SMOKY HILL AF", "CTRY": "US", "STATE": "KS", "ICAO": null, "LAT": 38.65, "LON": -97.8, "ELEV(M)": 422.1, "BEGIN": 19681101, "END": 19701230 }, "geometry": { "type": "Point", "coordinates": [ -97.8, 38.65 ] } },
{ "type": "Feature", "properties": { "USAF": "999999", "WBAN": 3919, "STATION NAME": "SALINA (OLD) MUNI AP", "CTRY": "US", "STATE": "KS", "ICAO": "KSLN", "LAT": 38.8, "LON": -97.65, "ELEV(M)": 390.8, "BEGIN": 19520101, "END": 19550101 }, "geometry": { "type": "Point", "coordinates": [ -97.65, 38.8 ] } },
{ "type": "Feature", "properties": { "USAF": "999999", "WBAN": 3923, "STATION NAME": "MCCONNELL AFB", "CTRY": "US", "STATE": "KS", "ICAO": "KIAB", "LAT": 37.617, "LON": -97.267, "ELEV(M)": 417.9, "BEGIN": 19710101, "END": 19710101 }, "geometry": { "type": "Point", "coordinates": [ -97.267, 37.617 ] } },
{ "type": "Feature", "properties": { "USAF": "999999", "WBAN": 3928, "STATION NAME": "WICHITA MUNICIPAL ARPT", "CTRY": "US", "STATE": "KS", "ICAO": "KICT", "LAT": 37.648, "LON": -97.43, "ELEV(M)": 408.4, "BEGIN": 19540101, "END": 19721231 }, "geometry": { "type": "Point", "coordinates": [ -97.43, 37.648 ] } },
{ "type": "Feature", "properties": { "USAF": "999999", "WBAN": 13920, "STATION NAME": "FORBES FIELD AAF", "CTRY": "US", "STATE": "KS", "ICAO": "KFOE", "LAT": 38.95, "LON": -95.664, "ELEV(M)": 328.9, "BEGIN": 19710101, "END": 19710101 }, "geometry": { "type": "Point", "coordinates": [ -95.664, 38.95 ] } },
{ "type": "Feature", "properties": { "USAF": "999999", "WBAN": 13980, "STATION NAME": "ANTHONY", "CTRY": "US", "STATE": "KS", "ICAO": null, "LAT": 37.167, "LON": -98.083, "ELEV(M)": 402.6, "BEGIN": 19480101, "END": 19510101 }, "geometry": { "type": "Point", "coordinates": [ -98.083, 37.167 ] } },
{ "type": "Feature", "properties": { "USAF": "999999", "WBAN": 13981, "STATION NAME": "CHANUTE MARTIN JOHNSON AP", "CTRY": "US", "STATE": "KS", "ICAO": "KCNU", "LAT": 37.67, "LON": -95.484, "ELEV(M)": 308.2, "BEGIN": 19480101, "END": 19650101 }, "geometry": { "type": "Point", "coordinates": [ -95.484, 37.67 ] } },
{ "type": "Feature", "properties": { "USAF": "999999", "WBAN": 13984, "STATION NAME": "CONCORDIA BLOSSER MUNI AP", "CTRY": "US", "STATE": "KS", "ICAO": "KCNK", "LAT": 39.551, "LON": -97.651, "ELEV(M)": 452.3, "BEGIN": 19480101, "END": 19721231 }, "geometry": { "type": "Point", "coordinates": [ -97.651, 39.551 ] } },
{ "type": "Feature", "properties": { "USAF": "999999", "WBAN": 13985, "STATION NAME": "DODGE CITY MUNICIPAL ARPT", "CTRY": "US", "STATE": "KS", "ICAO": "KDDC", "LAT": 37.769, "LON": -99.968, "ELEV(M)": 790.0, "BEGIN": 19480101, "END": 19721231 }, "geometry": { "type": "Point", "coordinates": [ -99.968, 37.769 ] } },
{ "type": "Feature", "properties": { "USAF": "999999", "WBAN": 13986, "STATION NAME": "HUTCHINSON MUNICIPAL AP", "CTRY": "US", "STATE": "KS", "ICAO": "KHUT", "LAT": 38.065, "LON": -97.861, "ELEV(M)": 470.0, "BEGIN": 19480101, "END": 19511231 }, "geometry": { "type": "Point", "coordinates": [ -97.861, 38.065 ] } },
{ "type": "Feature", "properties": { "USAF": "999999", "WBAN": 13989, "STATION NAME": "EMPORIA MUNICIPAL AP", "CTRY": "US", "STATE": "KS", "ICAO": "KEMP", "LAT": 38.329, "LON": -96.195, "ELEV(M)": 367.6, "BEGIN": 19501101, "END": 19550101 }, "geometry": { "type": "Point", "coordinates": [ -96.195, 38.329 ] } },
{ "type": "Feature", "properties": { "USAF": "999999", "WBAN": 13990, "STATION NAME": "LEBO CAA AIRPORT", "CTRY": "US", "STATE": "KS", "ICAO": null, "LAT": 38.433, "LON": -95.8, "ELEV(M)": 352.0, "BEGIN": 19480501, "END": 19501001 }, "geometry": { "type": "Point", "coordinates": [ -95.8, 38.433 ] } },
{ "type": "Feature", "properties": { "USAF": "999999", "WBAN": 13996, "STATION NAME": "TOPEKA MUNICIPAL AP", "CTRY": "US", "STATE": "KS", "ICAO": "KTOP", "LAT": 39.073, "LON": -95.626, "ELEV(M)": 269.7, "BEGIN": 19480101, "END": 19721231 }, "geometry": { "type": "Point", "coordinates": [ -95.626, 39.073 ] } },
{ "type": "Feature", "properties": { "USAF": "999999", "WBAN": 13998, "STATION NAME": "WICHITA", "CTRY": "US", "STATE": "KS", "ICAO": null, "LAT": 37.683, "LON": -97.35, "ELEV(M)": 387.1, "BEGIN": 19480101, "END": 19540101 }, "geometry": { "type": "Point", "coordinates": [ -97.35, 37.683 ] } },
{ "type": "Feature", "properties": { "USAF": "999999", "WBAN": 23065, "STATION NAME": "GOODLAND RENNER FIELD", "CTRY": "US", "STATE": "KS", "ICAO": "KGLD", "LAT": 39.367, "LON": -101.693, "ELEV(M)": 1124.1, "BEGIN": 19480101, "END": 19721231 }, "geometry": { "type": "Point", "coordinates": [ -101.693, 39.367 ] } },
{ "type": "Feature", "properties": { "USAF": "999999", "WBAN": 53974, "STATION NAME": "MANHATTAN 6 SSW", "CTRY": "US", "STATE": "KS", "ICAO": null, "LAT": 39.103, "LON": -96.61, "ELEV(M)": 346.6, "BEGIN": 20031001, "END": 20221231 }, "geometry": { "type": "Point", "coordinates": [ -96.61, 39.103 ] } },
{ "type": "Feature", "properties": { "USAF": "999999", "WBAN": 93905, "STATION NAME": "HUTCHINSON NAS", "CTRY": "US", "STATE": "KS", "ICAO": null, "LAT": 37.917, "LON": -97.9, "ELEV(M)": 479.1, "BEGIN": 19450201, "END": 19580501 }, "geometry": { "type": "Point", "coordinates": [ -97.9, 37.917 ] } },
{ "type": "Feature", "properties": { "USAF": "999999", "WBAN": 93909, "STATION NAME": "OLATHE JOHNSON CO INDUSTRIAL", "CTRY": "US", "STATE": "KS", "ICAO": "KIXD", "LAT": 38.832, "LON": -94.89, "ELEV(M)": 331.3, "BEGIN": 19450301, "END": 19700201 }, "geometry": { "type": "Point", "coordinates": [ -94.89, 38.832 ] } },
{ "type": "Feature", "properties": { "USAF": "999999", "WBAN": 93990, "STATION NAME": "HILL CITY MUNICIPAL AP", "CTRY": "US", "STATE": "KS", "ICAO": "KHLC", "LAT": 39.376, "LON": -99.83, "ELEV(M)": 677.0, "BEGIN": 19490101, "END": 19550101 }, "geometry": { "type": "Point", "coordinates": [ -99.83, 39.376 ] } },
{ "type": "Feature", "properties": { "USAF": "999999", "WBAN": 93997, "STATION NAME": "RUSSELL MUNICIPAL AP", "CTRY": "US", "STATE": "KS", "ICAO": "KRSL", "LAT": 38.876, "LON": -98.809, "ELEV(M)": 567.8, "BEGIN": 19500101, "END": 19721231 }, "geometry": { "type": "Point", "coordinates": [ -98.809, 38.876 ] } }
]
}
