{
"type": "FeatureCollection",
"name": "NE",
"crs": { "type": "name", "properties": { "name": "urn:ogc:def:crs:OGC:1.3:CRS84" } },
"features": [
{ "type": "Feature", "properties": { "USAF": "720308", "WBAN": 4992, "STATION NAME": "MILLARD AIRPORT", "CTRY": "US", "STATE": "NE", "ICAO": "KMLE", "LAT": 41.196, "LON": -96.112, "ELEV(M)": 319.7, "BEGIN": 20060101, "END": 20221231 }, "geometry": { "type": "Point", "coordinates": [ -96.112, 41.196 ] } },
{ "type": "Feature", "properties": { "USAF": "720308", "WBAN": 99999, "STATION NAME": "MILLARD", "CTRY": "US", "STATE": "NE", "ICAO": "KMLE", "LAT": 41.196, "LON": -96.112, "ELEV(M)": 320.0, "BEGIN": 20040525, "END": 20051231 }, "geometry": { "type": "Point", "coordinates": [ -96.112, 41.196 ] } },
{ "type": "Feature", "properties": { "USAF": "720405", "WBAN": 436, "STATION NAME": "BLAIR MUNICIPAL AIRPORT", "CTRY": "US", "STATE": "NE", "ICAO": "KBTA", "LAT": 41.412, "LON": -96.109, "ELEV(M)": 395.9, "BEGIN": 20090101, "END": 20221231 }, "geometry": { "type": "Point", "coordinates": [ -96.109, 41.412 ] } },
{ "type": "Feature", "properties": { "USAF": "720405", "WBAN": 99999, "STATION NAME": "BLAIR MUNI AIRPORT", "CTRY": "US", "STATE": "NE", "ICAO": "KBTA", "LAT": 41.417, "LON": -96.117, "ELEV(M)": 403.9, "BEGIN": 20080107, "END": 20081231 }, "geometry": { "type": "Point", "coordinates": [ -96.117, 41.417 ] } },
{ "type": "Feature", "properties": { "USAF": "720942", "WBAN": 323, "STATION NAME": "WAHOO MUNICIPAL AIRPORT", "CTRY": "US", "STATE": "NE", "ICAO": "KAHQ", "LAT": 41.233, "LON": -96.6, "ELEV(M)": 373.1, "BEGIN": 20110517, "END": 20221231 }, "geometry": { "type": "Point", "coordinates": [ -96.6, 41.233 ] } },
{ "type": "Feature", "properties": { "USAF": "720978", "WBAN": 99999, "STATION NAME": "BRAVO (PINE BLUFFS)", "CTRY": "US", "STATE": "NE", "ICAO": null, "LAT": 41.517, "LON": -104.0, "ELEV(M)": 1607.2, "BEGIN": 20130226, "END": 20221222 }, "geometry": { "type": "Point", "coordinates": [ -104.0, 41.517 ] } },
{ "type": "Feature", "properties": { "USAF": "720979", "WBAN": 99999, "STATION NAME": "CHARLIE (GERING)", "CTRY": "US", "STATE": "NE", "ICAO": null, "LAT": 41.583, "LON": -103.667, "ELEV(M)": 1371.0, "BEGIN": 20130226, "END": 20221231 }, "geometry": { "type": "Point", "coordinates": [ -103.667, 41.583 ] } },
{ "type": "Feature", "properties": { "USAF": "720981", "WBAN": 99999, "STATION NAME": "DELTA (KIMBALL)", "CTRY": "US", "STATE": "NE", "ICAO": null, "LAT": 41.367, "LON": -103.8, "ELEV(M)": 1546.0, "BEGIN": 20130731, "END": 20221222 }, "geometry": { "type": "Point", "coordinates": [ -103.8, 41.367 ] } },
{ "type": "Feature", "properties": { "USAF": "720982", "WBAN": 99999, "STATION NAME": "ECHO (PINE BLUFFS)", "CTRY": "US", "STATE": "NE", "ICAO": null, "LAT": 41.117, "LON": -103.983, "ELEV(M)": 1609.3, "BEGIN": 20131218, "END": 20221231 }, "geometry": { "type": "Point", "coordinates": [ -103.983, 41.117 ] } },
{ "type": "Feature", "properties": { "USAF": "720983", "WBAN": 99999, "STATION NAME": "FOXTROT (DIX)", "CTRY": "US", "STATE": "NE", "ICAO": null, "LAT": 41.367, "LON": -103.483, "ELEV(M)": 1453.0, "BEGIN": 20141215, "END": 20221024 }, "geometry": { "type": "Point", "coordinates": [ -103.483, 41.367 ] } },
{ "type": "Feature", "properties": { "USAF": "720984", "WBAN": 99999, "STATION NAME": "GOLF (SIDNEY)", "CTRY": "US", "STATE": "NE", "ICAO": null, "LAT": 41.217, "LON": -103.1, "ELEV(M)": 1333.5, "BEGIN": 20140514, "END": 20220616 }, "geometry": { "type": "Point", "coordinates": [ -103.1, 41.217 ] } },
{ "type": "Feature", "properties": { "USAF": "720985", "WBAN": 99999, "STATION NAME": "HOTEL (GURLEY)", "CTRY": "US", "STATE": "NE", "ICAO": null, "LAT": 41.317, "LON": -102.833, "ELEV(M)": 1262.8, "BEGIN": 20130816, "END": 20221231 }, "geometry": { "type": "Point", "coordinates": [ -102.833, 41.317 ] } },
{ "type": "Feature", "properties": { "USAF": "720986", "WBAN": 99999, "STATION NAME": "INDIA (SIDNEY)", "CTRY": "US", "STATE": "NE", "ICAO": null, "LAT": 41.05, "LON": -102.867, "ELEV(M)": 1293.0, "BEGIN": 20130828, "END": 20221231 }, "geometry": { "type": "Point", "coordinates": [ -102.867, 41.05 ] } },
{ "type": "Feature", "properties": { "USAF": "720988", "WBAN": 99999, "STATION NAME": "KILO (DIX)", "CTRY": "US", "STATE": "NE", "ICAO": "K1KW", "LAT": 41.133, "LON": -103.483, "ELEV(M)": 1439.3, "BEGIN": 20141215, "END": 20221208 }, "geometry": { "type": "Point", "coordinates": [ -103.483, 41.133 ] } },
{ "type": "Feature", "properties": { "USAF": "722124", "WBAN": 4998, "STATION NAME": "HEBRON MUNICIPAL AIRPORT", "CTRY": "US", "STATE": "NE", "ICAO": "KHJH", "LAT": 40.149, "LON": -97.587, "ELEV(M)": 449.0, "BEGIN": 20060101, "END": 20221231 }, "geometry": { "type": "Point", "coordinates": [ -97.587, 40.149 ] } },
{ "type": "Feature", "properties": { "USAF": "722124", "WBAN": 99999, "STATION NAME": "HEBRON MUNI", "CTRY": "US", "STATE": "NE", "ICAO": "KHJH", "LAT": 40.15, "LON": -97.583, "ELEV(M)": 447.0, "BEGIN": 20040525, "END": 20051231 }, "geometry": { "type": "Point", "coordinates": [ -97.583, 40.15 ] } },
{ "type": "Feature", "properties": { "USAF": "722205", "WBAN": 99999, "STATION NAME": "THEDFORD(NEXRAD)", "CTRY": "US", "STATE": "NE", "ICAO": "KLNX", "LAT": 41.95, "LON": -100.583, "ELEV(M)": 905.0, "BEGIN": 20061120, "END": 20061120 }, "geometry": { "type": "Point", "coordinates": [ -100.583, 41.95 ] } },
{ "type": "Feature", "properties": { "USAF": "722211", "WBAN": 94087, "STATION NAME": "THOMAS COUNTY AIRPORT", "CTRY": "US", "STATE": "NE", "ICAO": "KTIF", "LAT": 41.964, "LON": -100.569, "ELEV(M)": 888.2, "BEGIN": 20060101, "END": 20221231 }, "geometry": { "type": "Point", "coordinates": [ -100.569, 41.964 ] } },
{ "type": "Feature", "properties": { "USAF": "722211", "WBAN": 99999, "STATION NAME": "THOMAS COUNTY", "CTRY": "US", "STATE": "NE", "ICAO": "KTIF", "LAT": 41.967, "LON": -100.567, "ELEV(M)": 892.0, "BEGIN": 20040904, "END": 20051231 }, "geometry": { "type": "Point", "coordinates": [ -100.567, 41.967 ] } },
{ "type": "Feature", "properties": { "USAF": "722241", "WBAN": 54925, "STATION NAME": "WAYNE MUNICIPAL AIRPORT", "CTRY": "US", "STATE": "NE", "ICAO": "KLCG", "LAT": 42.242, "LON": -96.983, "ELEV(M)": 434.0, "BEGIN": 20060101, "END": 20221231 }, "geometry": { "type": "Point", "coordinates": [ -96.983, 42.242 ] } },
{ "type": "Feature", "properties": { "USAF": "722241", "WBAN": 99999, "STATION NAME": "WAYNE MUNI", "CTRY": "US", "STATE": "NE", "ICAO": "KLCG", "LAT": 42.25, "LON": -96.983, "ELEV(M)": 436.0, "BEGIN": 20050722, "END": 20051231 }, "geometry": { "type": "Point", "coordinates": [ -96.983, 42.25 ] } },
{ "type": "Feature", "properties": { "USAF": "722291", "WBAN": 470, "STATION NAME": "PLATTSMOUTH MUNICIPAL AIRPORT", "CTRY": "US", "STATE": "NE", "ICAO": "KPMV", "LAT": 40.948, "LON": -95.917, "ELEV(M)": 367.3, "BEGIN": 20061121, "END": 20221231 }, "geometry": { "type": "Point", "coordinates": [ -95.917, 40.948 ] } },
{ "type": "Feature", "properties": { "USAF": "722291", "WBAN": 99999, "STATION NAME": "PLATTSMOUTH MUNI", "CTRY": "US", "STATE": "NE", "ICAO": "KPMV", "LAT": 40.95, "LON": -95.918, "ELEV(M)": 366.4, "BEGIN": 20080101, "END": 20081231 }, "geometry": { "type": "Point", "coordinates": [ -95.918, 40.95 ] } },
{ "type": "Feature", "properties": { "USAF": "723441", "WBAN": 54921, "STATION NAME": "ALBION MUNICIPAL AIRPORT", "CTRY": "US", "STATE": "NE", "ICAO": "KBVN", "LAT": 41.73, "LON": -98.054, "ELEV(M)": 548.3, "BEGIN": 20060101, "END": 20221231 }, "geometry": { "type": "Point", "coordinates": [ -98.054, 41.73 ] } },
{ "type": "Feature", "properties": { "USAF": "723441", "WBAN": 99999, "STATION NAME": "ALBION MUNI", "CTRY": "US", "STATE": "NE", "ICAO": "KBVN", "LAT": 41.733, "LON": -98.05, "ELEV(M)": 550.0, "BEGIN": 20040824, "END": 20051231 }, "geometry": { "type": "Point", "coordinates": [ -98.05, 41.733 ] } },
{ "type": "Feature", "properties": { "USAF": "725500", "WBAN": 14942, "STATION NAME": "EPPLEY AIRFIELD AIRPORT", "CTRY": "US", "STATE": "NE", "ICAO": "KOMA", "LAT": 41.312, "LON": -95.902, "ELEV(M)": 298.8, "BEGIN": 19740419, "END": 20221231 }, "geometry": { "type": "Point", "coordinates": [ -95.902, 41.312 ] } },
{ "type": "Feature", "properties": { "USAF": "725510", "WBAN": 14939, "STATION NAME": "LINCOLN MUNICIPAL AIRPORT", "CTRY": "US", "STATE": "NE", "ICAO": "KLNK", "LAT": 40.848, "LON": -96.765, "ELEV(M)": 356.7, "BEGIN": 19421001, "END": 20221231 }, "geometry": { "type": "Point", "coordinates": [ -96.765, 40.848 ] } },
{ "type": "Feature", "properties": { "USAF": "725512", "WBAN": 14989, "STATION NAME": "YORK MUNICIPAL AIRPORT", "CTRY": "US", "STATE": "NE", "ICAO": "KJYR", "LAT": 40.894, "LON": -97.626, "ELEV(M)": 507.2, "BEGIN": 20060101, "END": 20221231 }, "geometry": { "type": "Point", "coordinates": [ -97.626, 40.894 ] } },
{ "type": "Feature", "properties": { "USAF": "725512", "WBAN": 99999, "STATION NAME": "YORK MUNI", "CTRY": "US", "STATE": "NE", "ICAO": "KJYR", "LAT": 40.897, "LON": -97.623, "ELEV(M)": 509.0, "BEGIN": 20040510, "END": 20051231 }, "geometry": { "type": "Point", "coordinates": [ -97.623, 40.897 ] } },
{ "type": "Feature", "properties": { "USAF": "725513", "WBAN": 4901, "STATION NAME": "ARRA MUNI-AL POTTER FLD AP", "CTRY": "US", "STATE": "NE", "ICAO": "KAUH", "LAT": 40.893, "LON": -97.997, "ELEV(M)": 548.3, "BEGIN": 20060101, "END": 20221231 }, "geometry": { "type": "Point", "coordinates": [ -97.997, 40.893 ] } },
{ "type": "Feature", "properties": { "USAF": "725513", "WBAN": 99999, "STATION NAME": "AURORA MUNI AL POTT", "CTRY": "US", "STATE": "NE", "ICAO": "KAUH", "LAT": 40.9, "LON": -97.983, "ELEV(M)": 550.0, "BEGIN": 19980408, "END": 20051231 }, "geometry": { "type": "Point", "coordinates": [ -97.983, 40.9 ] } },
{ "type": "Feature", "properties": { "USAF": "725515", "WBAN": 94947, "STATION NAME": "BEATRICE MUNICIPAL AIRPORT", "CTRY": "US", "STATE": "NE", "ICAO": "KBIE", "LAT": 40.301, "LON": -96.754, "ELEV(M)": 403.6, "BEGIN": 20060101, "END": 20221231 }, "geometry": { "type": "Point", "coordinates": [ -96.754, 40.301 ] } },
{ "type": "Feature", "properties": { "USAF": "725515", "WBAN": 99999, "STATION NAME": "BEATRICE MUNI", "CTRY": "US", "STATE": "NE", "ICAO": "KBIE", "LAT": 40.3, "LON": -96.75, "ELEV(M)": 404.0, "BEGIN": 19730101, "END": 19971231 }, "geometry": { "type": "Point", "coordinates": [ -96.75, 40.3 ] } },
{ "type": "Feature", "properties": { "USAF": "725520", "WBAN": 14935, "STATION NAME": "CENTRAL NEBRASKA REGIONAL AIRPORT", "CTRY": "US", "STATE": "NE", "ICAO": "KGRI", "LAT": 40.961, "LON": -98.313, "ELEV(M)": 561.7, "BEGIN": 19440301, "END": 20221231 }, "geometry": { "type": "Point", "coordinates": [ -98.313, 40.961 ] } },
{ "type": "Feature", "properties": { "USAF": "725524", "WBAN": 94958, "STATION NAME": "EVELYN SHARP FIELD AIRPORT", "CTRY": "US", "STATE": "NE", "ICAO": "KODX", "LAT": 41.623, "LON": -98.949, "ELEV(M)": 627.5, "BEGIN": 20060101, "END": 20221231 }, "geometry": { "type": "Point", "coordinates": [ -98.949, 41.623 ] } },
{ "type": "Feature", "properties": { "USAF": "725524", "WBAN": 99999, "STATION NAME": "EVELYN SHARP FLD", "CTRY": "US", "STATE": "NE", "ICAO": "KODX", "LAT": 41.617, "LON": -98.95, "ELEV(M)": 631.0, "BEGIN": 19810806, "END": 19971231 }, "geometry": { "type": "Point", "coordinates": [ -98.95, 41.617 ] } },
{ "type": "Feature", "properties": { "USAF": "725525", "WBAN": 94949, "STATION NAME": "HASTINGS MUNICIPAL AIRPORT", "CTRY": "US", "STATE": "NE", "ICAO": "KHSI", "LAT": 40.6, "LON": -98.426, "ELEV(M)": 591.1, "BEGIN": 20060101, "END": 20221231 }, "geometry": { "type": "Point", "coordinates": [ -98.426, 40.6 ] } },
{ "type": "Feature", "properties": { "USAF": "725525", "WBAN": 99999, "STATION NAME": "HASTINGS MUNI", "CTRY": "US", "STATE": "NE", "ICAO": "KHSI", "LAT": 40.605, "LON": -98.428, "ELEV(M)": 598.0, "BEGIN": 19730101, "END": 19971231 }, "geometry": { "type": "Point", "coordinates": [ -98.428, 40.605 ] } },
{ "type": "Feature", "properties": { "USAF": "725526", "WBAN": 14905, "STATION NAME": "KEARNEY MUNICIPAL AIRPORT", "CTRY": "US", "STATE": "NE", "ICAO": "KEAR", "LAT": 40.733, "LON": -99.0, "ELEV(M)": 649.2, "BEGIN": 20060101, "END": 20221231 }, "geometry": { "type": "Point", "coordinates": [ -99.0, 40.733 ] } },
{ "type": "Feature", "properties": { "USAF": "725526", "WBAN": 99999, "STATION NAME": "KEARNEY MUNI", "CTRY": "US", "STATE": "NE", "ICAO": "KEAR", "LAT": 40.717, "LON": -99.0, "ELEV(M)": 649.0, "BEGIN": 19430312, "END": 19971231 }, "geometry": { "type": "Point", "coordinates": [ -99.0, 40.717 ] } },
{ "type": "Feature", "properties": { "USAF": "725527", "WBAN": 94978, "STATION NAME": "TEKAMAH MUNICIPAL AIRPORT", "CTRY": "US", "STATE": "NE", "ICAO": "KTQE", "LAT": 41.763, "LON": -96.18, "ELEV(M)": 312.0, "BEGIN": 20060101, "END": 20221231 }, "geometry": { "type": "Point", "coordinates": [ -96.18, 41.763 ] } },
{ "type": "Feature", "properties": { "USAF": "725527", "WBAN": 99999, "STATION NAME": "TEKAMAH MUNI", "CTRY": "US", "STATE": "NE", "ICAO": "KTQE", "LAT": 41.767, "LON": -96.183, "ELEV(M)": 313.0, "BEGIN": 19951107, "END": 19971231 }, "geometry": { "type": "Point", "coordinates": [ -96.183, 41.767 ] } },
{ "type": "Feature", "properties": { "USAF": "725528", "WBAN": 99999, "STATION NAME": "CRAM FLD", "CTRY": "US", "STATE": "NE", "ICAO": "KBUB", "LAT": 41.777, "LON": -99.15, "ELEV(M)": 665.1, "BEGIN": 19810121, "END": 19810429 }, "geometry": { "type": "Point", "coordinates": [ -99.15, 41.777 ] } },
{ "type": "Feature", "properties": { "USAF": "725530", "WBAN": 94918, "STATION NAME": "OMAHA", "CTRY": "US", "STATE": "NE", "ICAO": null, "LAT": 41.367, "LON": -96.017, "ELEV(M)": 405.7, "BEGIN": 19730101, "END": 19950916 }, "geometry": { "type": "Point", "coordinates": [ -96.017, 41.367 ] } },
{ "type": "Feature", "properties": { "USAF": "725532", "WBAN": 14942, "STATION NAME": "OMAHA EPPLEY AIRFIELD", "CTRY": "US", "STATE": "NE", "ICAO": "KOMA", "LAT": 41.31, "LON": -95.899, "ELEV(M)": 299.3, "BEGIN": 19730101, "END": 19740217 }, "geometry": { "type": "Point", "coordinates": [ -95.899, 41.31 ] } },
{ "type": "Feature", "properties": { "USAF": "725533", "WBAN": 94957, "STATION NAME": "BRENNER FIELD AIRPORT", "CTRY": "US", "STATE": "NE", "ICAO": "KFNB", "LAT": 40.079, "LON": -95.589, "ELEV(M)": 298.8, "BEGIN": 20000101, "END": 20221231 }, "geometry": { "type": "Point", "coordinates": [ -95.589, 40.079 ] } },
{ "type": "Feature", "properties": { "USAF": "725533", "WBAN": 99999, "STATION NAME": "FALLS CITY/BRENNER", "CTRY": "US", "STATE": "NE", "ICAO": "KFNB", "LAT": 40.083, "LON": -95.6, "ELEV(M)": 300.0, "BEGIN": 19810904, "END": 19971231 }, "geometry": { "type": "Point", "coordinates": [ -95.6, 40.083 ] } },
{ "type": "Feature", "properties": { "USAF": "725540", "WBAN": 14949, "STATION NAME": "OFFUTT AFB AIRPORT", "CTRY": "US", "STATE": "NE", "ICAO": "KOFF", "LAT": 41.117, "LON": -95.917, "ELEV(M)": 319.1, "BEGIN": 19480112, "END": 20221231 }, "geometry": { "type": "Point", "coordinates": [ -95.917, 41.117 ] } },
{ "type": "Feature", "properties": { "USAF": "725540", "WBAN": 99999, "STATION NAME": "OFFUTT AFB", "CTRY": "US", "STATE": "NE", "ICAO": "KOFF", "LAT": 41.117, "LON": -95.9, "ELEV(M)": 321.0, "BEGIN": 20000101, "END": 20041231 }, "geometry": { "type": "Point", "coordinates": [ -95.9, 41.117 ] } },
{ "type": "Feature", "properties": { "USAF": "725541", "WBAN": 4993, "STATION NAME": "NEBRASKA CITY MUNI AIRPORT", "CTRY": "US", "STATE": "NE", "ICAO": "KAFK", "LAT": 40.606, "LON": -95.864, "ELEV(M)": 351.4, "BEGIN": 20060101, "END": 20221231 }, "geometry": { "type": "Point", "coordinates": [ -95.864, 40.606 ] } },
{ "type": "Feature", "properties": { "USAF": "725541", "WBAN": 99999, "STATION NAME": "NEBRASKA CITY MUNI", "CTRY": "US", "STATE": "NE", "ICAO": "KAFK", "LAT": 40.6, "LON": -95.867, "ELEV(M)": 354.0, "BEGIN": 20040510, "END": 20051231 }, "geometry": { "type": "Point", "coordinates": [ -95.867, 40.6 ] } },
{ "type": "Feature", "properties": { "USAF": "725551", "WBAN": 99999, "STATION NAME": "BURWELL MUNI", "CTRY": "US", "STATE": "NE", "ICAO": "K20", "LAT": 41.783, "LON": -99.15, "ELEV(M)": 664.0, "BEGIN": 19760305, "END": 19801101 }, "geometry": { "type": "Point", "coordinates": [ -99.15, 41.783 ] } },
{ "type": "Feature", "properties": { "USAF": "725555", "WBAN": 94946, "STATION NAME": "BROKEN BOW MUNICIPAL ARPT", "CTRY": "US", "STATE": "NE", "ICAO": "KBBW", "LAT": 41.437, "LON": -99.639, "ELEV(M)": 771.1, "BEGIN": 20060101, "END": 20221231 }, "geometry": { "type": "Point", "coordinates": [ -99.639, 41.437 ] } },
{ "type": "Feature", "properties": { "USAF": "725555", "WBAN": 99999, "STATION NAME": "BROKEN BOW MUNI", "CTRY": "US", "STATE": "NE", "ICAO": "KBBW", "LAT": 41.433, "LON": -99.65, "ELEV(M)": 776.0, "BEGIN": 19730101, "END": 19971231 }, "geometry": { "type": "Point", "coordinates": [ -99.65, 41.433 ] } },
{ "type": "Feature", "properties": { "USAF": "725556", "WBAN": 94975, "STATION NAME": "AINSWORTH MUNICIPAL ARPT", "CTRY": "US", "STATE": "NE", "ICAO": "KANW", "LAT": 42.577, "LON": -100.001, "ELEV(M)": 787.6, "BEGIN": 20060101, "END": 20221231 }, "geometry": { "type": "Point", "coordinates": [ -100.001, 42.577 ] } },
{ "type": "Feature", "properties": { "USAF": "725556", "WBAN": 99999, "STATION NAME": "AINSWORTH MUNICIPAL", "CTRY": "US", "STATE": "NE", "ICAO": "KANW", "LAT": 42.579, "LON": -100.0, "ELEV(M)": 789.0, "BEGIN": 19430203, "END": 19971231 }, "geometry": { "type": "Point", "coordinates": [ -100.0, 42.579 ] } },
{ "type": "Feature", "properties": { "USAF": "725560", "WBAN": 14941, "STATION NAME": "KARL STEFAN MEMORIAL AIRPORT", "CTRY": "US", "STATE": "NE", "ICAO": "KOFK", "LAT": 41.98, "LON": -97.434, "ELEV(M)": 476.2, "BEGIN": 19730101, "END": 20221231 }, "geometry": { "type": "Point", "coordinates": [ -97.434, 41.98 ] } },
{ "type": "Feature", "properties": { "USAF": "725564", "WBAN": 4924, "STATION NAME": "FREMONT MUNICIPAL AIRPORT", "CTRY": "US", "STATE": "NE", "ICAO": "KFET", "LAT": 41.449, "LON": -96.52, "ELEV(M)": 366.7, "BEGIN": 20060101, "END": 20221231 }, "geometry": { "type": "Point", "coordinates": [ -96.52, 41.449 ] } },
{ "type": "Feature", "properties": { "USAF": "725564", "WBAN": 99999, "STATION NAME": "FREMONT MUNI", "CTRY": "US", "STATE": "NE", "ICAO": "KFET", "LAT": 41.449, "LON": -96.52, "ELEV(M)": 367.0, "BEGIN": 19951107, "END": 19971231 }, "geometry": { "type": "Point", "coordinates": [ -96.52, 41.449 ] } },
{ "type": "Feature", "properties": { "USAF": "725565", "WBAN": 94951, "STATION NAME": "COLUMBUS MUNICIPAL AIRPORT", "CTRY": "US", "STATE": "NE", "ICAO": "KOLU", "LAT": 41.448, "LON": -97.343, "ELEV(M)": 441.1, "BEGIN": 20060101, "END": 20221231 }, "geometry": { "type": "Point", "coordinates": [ -97.343, 41.448 ] } },
{ "type": "Feature", "properties": { "USAF": "725565", "WBAN": 99999, "STATION NAME": "COLUMBUS MUNI", "CTRY": "US", "STATE": "NE", "ICAO": "KOLU", "LAT": 41.45, "LON": -97.333, "ELEV(M)": 440.0, "BEGIN": 19730101, "END": 19971231 }, "geometry": { "type": "Point", "coordinates": [ -97.333, 41.45 ] } },
{ "type": "Feature", "properties": { "USAF": "725566", "WBAN": 4957, "STATION NAME": "THE O'NEILL MUNI-JOHN L BAKER FIELD AIRPORT", "CTRY": "US", "STATE": "NE", "ICAO": "KONL", "LAT": 42.47, "LON": -98.688, "ELEV(M)": 619.1, "BEGIN": 20060101, "END": 20221231 }, "geometry": { "type": "Point", "coordinates": [ -98.688, 42.47 ] } },
{ "type": "Feature", "properties": { "USAF": "725566", "WBAN": 99999, "STATION NAME": "THE ONEILL MUNI J BA", "CTRY": "US", "STATE": "NE", "ICAO": "KONL", "LAT": 42.47, "LON": -98.688, "ELEV(M)": 619.0, "BEGIN": 19530804, "END": 19971231 }, "geometry": { "type": "Point", "coordinates": [ -98.688, 42.47 ] } },
{ "type": "Feature", "properties": { "USAF": "725580", "WBAN": 99999, "STATION NAME": "VALLEY", "CTRY": "US", "STATE": "NE", "ICAO": "KOAX", "LAT": 41.317, "LON": -96.35, "ELEV(M)": 351.5, "BEGIN": 20000216, "END": 20050420 }, "geometry": { "type": "Point", "coordinates": [ -96.35, 41.317 ] } },
{ "type": "Feature", "properties": { "USAF": "725610", "WBAN": 24030, "STATION NAME": "SIDNEY MUNICIPAL AIRPORT", "CTRY": "US", "STATE": "NE", "ICAO": "KSNY", "LAT": 41.099, "LON": -102.986, "ELEV(M)": 1306.8, "BEGIN": 19770827, "END": 20221231 }, "geometry": { "type": "Point", "coordinates": [ -102.986, 41.099 ] } },
{ "type": "Feature", "properties": { "USAF": "725610", "WBAN": 99999, "STATION NAME": "SIDNEY MUNI (AMOS)", "CTRY": "US", "STATE": "NE", "ICAO": "KSNY", "LAT": 41.1, "LON": -102.983, "ELEV(M)": 1312.0, "BEGIN": 20000101, "END": 20031231 }, "geometry": { "type": "Point", "coordinates": [ -102.983, 41.1 ] } },
{ "type": "Feature", "properties": { "USAF": "725620", "WBAN": 24023, "STATION NAME": "NORTH PLATTE RGNL AP LEE BIRD FD AP", "CTRY": "US", "STATE": "NE", "ICAO": "KLBF", "LAT": 41.122, "LON": -100.669, "ELEV(M)": 841.9, "BEGIN": 19730101, "END": 20221231 }, "geometry": { "type": "Point", "coordinates": [ -100.669, 41.122 ] } },
{ "type": "Feature", "properties": { "USAF": "725621", "WBAN": 94063, "STATION NAME": "SEARLE FIELD AIRPORT", "CTRY": "US", "STATE": "NE", "ICAO": "KOGA", "LAT": 41.119, "LON": -101.768, "ELEV(M)": 990.6, "BEGIN": 20060101, "END": 20221231 }, "geometry": { "type": "Point", "coordinates": [ -101.768, 41.119 ] } },
{ "type": "Feature", "properties": { "USAF": "725621", "WBAN": 99999, "STATION NAME": "SEARLE FLD", "CTRY": "US", "STATE": "NE", "ICAO": "KOGA", "LAT": 41.117, "LON": -101.767, "ELEV(M)": 999.0, "BEGIN": 19970123, "END": 19971231 }, "geometry": { "type": "Point", "coordinates": [ -101.767, 41.117 ] } },
{ "type": "Feature", "properties": { "USAF": "725624", "WBAN": 14994, "STATION NAME": "JIM KELLY FIELD AIRPORT", "CTRY": "US", "STATE": "NE", "ICAO": "KLXN", "LAT": 40.789, "LON": -99.771, "ELEV(M)": 733.0, "BEGIN": 20050101, "END": 20221231 }, "geometry": { "type": "Point", "coordinates": [ -99.771, 40.789 ] } },
{ "type": "Feature", "properties": { "USAF": "725624", "WBAN": 99999, "STATION NAME": "JIM KELLY FLD", "CTRY": "US", "STATE": "NE", "ICAO": "KLXN", "LAT": 40.791, "LON": -99.777, "ELEV(M)": 735.0, "BEGIN": 19970123, "END": 19971231 }, "geometry": { "type": "Point", "coordinates": [ -99.777, 40.791 ] } },
{ "type": "Feature", "properties": { "USAF": "725625", "WBAN": 94040, "STATION NAME": "MC COOK MUNICIPAL AIRPORT", "CTRY": "US", "STATE": "NE", "ICAO": "KMCK", "LAT": 40.204, "LON": -100.59, "ELEV(M)": 779.4, "BEGIN": 20060101, "END": 20221231 }, "geometry": { "type": "Point", "coordinates": [ -100.59, 40.204 ] } },
{ "type": "Feature", "properties": { "USAF": "725625", "WBAN": 99999, "STATION NAME": "MCCOOK RGNL", "CTRY": "US", "STATE": "NE", "ICAO": "KMCK", "LAT": 40.2, "LON": -100.583, "ELEV(M)": 782.0, "BEGIN": 19730101, "END": 19971231 }, "geometry": { "type": "Point", "coordinates": [ -100.583, 40.2 ] } },
{ "type": "Feature", "properties": { "USAF": "725626", "WBAN": 24091, "STATION NAME": "IMPERIAL MUNICIPAL AIRPORT", "CTRY": "US", "STATE": "NE", "ICAO": "KIML", "LAT": 40.511, "LON": -101.624, "ELEV(M)": 996.5, "BEGIN": 19730401, "END": 20221231 }, "geometry": { "type": "Point", "coordinates": [ -101.624, 40.511 ] } },
{ "type": "Feature", "properties": { "USAF": "725626", "WBAN": 99999, "STATION NAME": "IMPERIAL MUNI", "CTRY": "US", "STATE": "NE", "ICAO": "KIML", "LAT": 40.509, "LON": -101.621, "ELEV(M)": 997.0, "BEGIN": 20000101, "END": 20031231 }, "geometry": { "type": "Point", "coordinates": [ -101.621, 40.509 ] } },
{ "type": "Feature", "properties": { "USAF": "725627", "WBAN": 99999, "STATION NAME": "MULLEN / HOOKER COUNTY", "CTRY": "US", "STATE": "NE", "ICAO": "KMHN", "LAT": 42.05, "LON": -101.07, "ELEV(M)": 994.0, "BEGIN": 19730101, "END": 19951209 }, "geometry": { "type": "Point", "coordinates": [ -101.07, 42.05 ] } },
{ "type": "Feature", "properties": { "USAF": "725628", "WBAN": 4935, "STATION NAME": "BREWSTER FIELD AIRPORT", "CTRY": "US", "STATE": "NE", "ICAO": "KHDE", "LAT": 40.45, "LON": -99.339, "ELEV(M)": 702.3, "BEGIN": 20060101, "END": 20221231 }, "geometry": { "type": "Point", "coordinates": [ -99.339, 40.45 ] } },
{ "type": "Feature", "properties": { "USAF": "725628", "WBAN": 99999, "STATION NAME": "BREWSTER FLD", "CTRY": "US", "STATE": "NE", "ICAO": "KHDE", "LAT": 40.45, "LON": -99.333, "ELEV(M)": 704.0, "BEGIN": 19730101, "END": 19971231 }, "geometry": { "type": "Point", "coordinates": [ -99.333, 40.45 ] } },
{ "type": "Feature", "properties": { "USAF": "725630", "WBAN": 24030, "STATION NAME": "SIDNEY MUNICIPAL AP", "CTRY": "US", "STATE": "NE", "ICAO": "KSNY", "LAT": 41.099, "LON": -102.986, "ELEV(M)": 1312.5, "BEGIN": 19730101, "END": 19770819 }, "geometry": { "type": "Point", "coordinates": [ -102.986, 41.099 ] } },
{ "type": "Feature", "properties": { "USAF": "725634", "WBAN": 99999, "STATION NAME": "COZAD MUNI", "CTRY": "US", "STATE": "NE", "ICAO": "KCZD", "LAT": 40.869, "LON": -100.004, "ELEV(M)": 762.6, "BEGIN": 19851106, "END": 19910405 }, "geometry": { "type": "Point", "coordinates": [ -100.004, 40.869 ] } },
{ "type": "Feature", "properties": { "USAF": "725635", "WBAN": 24044, "STATION NAME": "ALLIANCE MUNICIPAL AIRPORT", "CTRY": "US", "STATE": "NE", "ICAO": "KAIA", "LAT": 42.057, "LON": -102.802, "ELEV(M)": 1196.3, "BEGIN": 20060101, "END": 20221231 }, "geometry": { "type": "Point", "coordinates": [ -102.802, 42.057 ] } },
{ "type": "Feature", "properties": { "USAF": "725635", "WBAN": 99999, "STATION NAME": "ALLIANCE MUNI", "CTRY": "US", "STATE": "NE", "ICAO": "KAIA", "LAT": 42.05, "LON": -102.8, "ELEV(M)": 1198.0, "BEGIN": 19421122, "END": 19971231 }, "geometry": { "type": "Point", "coordinates": [ -102.8, 42.05 ] } },
{ "type": "Feature", "properties": { "USAF": "725636", "WBAN": 24017, "STATION NAME": "CHADRON MUNICIPAL AIRPORT", "CTRY": "US", "STATE": "NE", "ICAO": "KCDR", "LAT": 42.837, "LON": -103.098, "ELEV(M)": 1003.0, "BEGIN": 19730101, "END": 20221231 }, "geometry": { "type": "Point", "coordinates": [ -103.098, 42.837 ] } },
{ "type": "Feature", "properties": { "USAF": "725636", "WBAN": 99999, "STATION NAME": "CHADRON MUNI", "CTRY": "US", "STATE": "NE", "ICAO": "KCDR", "LAT": 42.833, "LON": -103.1, "ELEV(M)": 1005.0, "BEGIN": 20000101, "END": 20031231 }, "geometry": { "type": "Point", "coordinates": [ -103.1, 42.833 ] } },
{ "type": "Feature", "properties": { "USAF": "725637", "WBAN": 99999, "STATION NAME": "GORDON MUNI", "CTRY": "US", "STATE": "NE", "ICAO": "KGRN", "LAT": 42.806, "LON": -102.175, "ELEV(M)": 1085.7, "BEGIN": 19740101, "END": 20221231 }, "geometry": { "type": "Point", "coordinates": [ -102.175, 42.806 ] } },
{ "type": "Feature", "properties": { "USAF": "725660", "WBAN": 24028, "STATION NAME": "WESTERN NE REGIONAL/HEILIG FIELD AP", "CTRY": "US", "STATE": "NE", "ICAO": "KBFF", "LAT": 41.875, "LON": -103.601, "ELEV(M)": 1206.0, "BEGIN": 19430113, "END": 20221231 }, "geometry": { "type": "Point", "coordinates": [ -103.601, 41.875 ] } },
{ "type": "Feature", "properties": { "USAF": "725665", "WBAN": 94073, "STATION NAME": "KMBAL MUNI/R E ARRAJ FD AP", "CTRY": "US", "STATE": "NE", "ICAO": "KIBM", "LAT": 41.189, "LON": -103.671, "ELEV(M)": 1491.7, "BEGIN": 20060101, "END": 20221231 }, "geometry": { "type": "Point", "coordinates": [ -103.671, 41.189 ] } },
{ "type": "Feature", "properties": { "USAF": "725665", "WBAN": 99999, "STATION NAME": "KIMBALL MUNI R E ARR", "CTRY": "US", "STATE": "NE", "ICAO": "KIBM", "LAT": 41.18, "LON": -103.67, "ELEV(M)": 1501.0, "BEGIN": 20030512, "END": 20051231 }, "geometry": { "type": "Point", "coordinates": [ -103.67, 41.18 ] } },
{ "type": "Feature", "properties": { "USAF": "725670", "WBAN": 24032, "STATION NAME": "MILLER FIELD AIRPORT", "CTRY": "US", "STATE": "NE", "ICAO": "KVTN", "LAT": 42.859, "LON": -100.551, "ELEV(M)": 791.0, "BEGIN": 19480101, "END": 20221231 }, "geometry": { "type": "Point", "coordinates": [ -100.551, 42.859 ] } },
{ "type": "Feature", "properties": { "USAF": "744450", "WBAN": 99999, "STATION NAME": "NELIGH  NE.", "CTRY": "US", "STATE": "NE", "ICAO": null, "LAT": 42.2, "LON": -97.8, "ELEV(M)": 524.0, "BEGIN": 20050215, "END": 20051128 }, "geometry": { "type": "Point", "coordinates": [ -97.8, 42.2 ] } },
{ "type": "Feature", "properties": { "USAF": "749110", "WBAN": 99999, "STATION NAME": "BRUNING AAF", "CTRY": "US", "STATE": "NE", "ICAO": null, "LAT": 40.333, "LON": -97.417, "ELEV(M)": 471.0, "BEGIN": 19430101, "END": 19450101 }, "geometry": { "type": "Point", "coordinates": [ -97.417, 40.333 ] } },
{ "type": "Feature", "properties": { "USAF": "749111", "WBAN": 99999, "STATION NAME": "HARVARD AAF", "CTRY": "US", "STATE": "NE", "ICAO": null, "LAT": 40.65, "LON": -98.083, "ELEV(M)": 554.0, "BEGIN": 19430807, "END": 19460117 }, "geometry": { "type": "Point", "coordinates": [ -98.083, 40.65 ] } },
{ "type": "Feature", "properties": { "USAF": "749112", "WBAN": 99999, "STATION NAME": "FAIRMONT AAF", "CTRY": "US", "STATE": "NE", "ICAO": null, "LAT": 40.583, "LON": -97.567, "ELEV(M)": 500.0, "BEGIN": 19421218, "END": 19451031 }, "geometry": { "type": "Point", "coordinates": [ -97.567, 40.583 ] } },
{ "type": "Feature", "properties": { "USAF": "999999", "WBAN": 14904, "STATION NAME": "LINCOLN AFB", "CTRY": "US", "STATE": "NE", "ICAO": "LNK", "LAT": 40.85, "LON": -96.767, "ELEV(M)": 356.0, "BEGIN": 19540701, "END": 19640615 }, "geometry": { "type": "Point", "coordinates": [ -96.767, 40.85 ] } },
{ "type": "Feature", "properties": { "USAF": "999999", "WBAN": 14935, "STATION NAME": "GRAND ISLAND ARPT", "CTRY": "US", "STATE": "NE", "ICAO": "KGRI", "LAT": 40.961, "LON": -98.314, "ELEV(M)": 565.7, "BEGIN": 19480101, "END": 19721231 }, "geometry": { "type": "Point", "coordinates": [ -98.314, 40.961 ] } },
{ "type": "Feature", "properties": { "USAF": "999999", "WBAN": 14939, "STATION NAME": "LINCOLN AIR BASE", "CTRY": "US", "STATE": "NE", "ICAO": "KLNK", "LAT": 40.851, "LON": -96.748, "ELEV(M)": 362.4, "BEGIN": 19480101, "END": 19721231 }, "geometry": { "type": "Point", "coordinates": [ -96.748, 40.851 ] } },
{ "type": "Feature", "properties": { "USAF": "999999", "WBAN": 14941, "STATION NAME": "NORFOLK KARL STEFAN MEM ARPT", "CTRY": "US", "STATE": "NE", "ICAO": "KOFK", "LAT": 41.986, "LON": -97.435, "ELEV(M)": 472.7, "BEGIN": 19480101, "END": 19721231 }, "geometry": { "type": "Point", "coordinates": [ -97.435, 41.986 ] } },
{ "type": "Feature", "properties": { "USAF": "999999", "WBAN": 14942, "STATION NAME": "OMAHA EPPLEY AIRFIELD", "CTRY": "US", "STATE": "NE", "ICAO": "KOMA", "LAT": 41.31, "LON": -95.899, "ELEV(M)": 299.3, "BEGIN": 19480101, "END": 19721231 }, "geometry": { "type": "Point", "coordinates": [ -95.899, 41.31 ] } },
{ "type": "Feature", "properties": { "USAF": "999999", "WBAN": 14994, "STATION NAME": "LEXINGTON", "CTRY": "US", "STATE": "NE", "ICAO": "KLXN", "LAT": 40.789, "LON": -99.771, "ELEV(M)": 735.5, "BEGIN": 19510101, "END": 20041231 }, "geometry": { "type": "Point", "coordinates": [ -99.771, 40.789 ] } },
{ "type": "Feature", "properties": { "USAF": "999999", "WBAN": 24017, "STATION NAME": "CHADRON MUNICIPAL AP", "CTRY": "US", "STATE": "NE", "ICAO": "KCDR", "LAT": 42.837, "LON": -103.098, "ELEV(M)": 1004.6, "BEGIN": 19480101, "END": 19550101 }, "geometry": { "type": "Point", "coordinates": [ -103.098, 42.837 ] } },
{ "type": "Feature", "properties": { "USAF": "999999", "WBAN": 24020, "STATION NAME": "HAYES CENTER", "CTRY": "US", "STATE": "NE", "ICAO": null, "LAT": 40.517, "LON": -101.017, "ELEV(M)": 926.9, "BEGIN": 19480101, "END": 19501101 }, "geometry": { "type": "Point", "coordinates": [ -101.017, 40.517 ] } },
{ "type": "Feature", "properties": { "USAF": "999999", "WBAN": 24023, "STATION NAME": "NORTH PLATTE LEE BIRD FIELD", "CTRY": "US", "STATE": "NE", "ICAO": "KLBF", "LAT": 41.121, "LON": -100.669, "ELEV(M)": 849.5, "BEGIN": 19480101, "END": 19721231 }, "geometry": { "type": "Point", "coordinates": [ -100.669, 41.121 ] } },
{ "type": "Feature", "properties": { "USAF": "999999", "WBAN": 24028, "STATION NAME": "SCOTTSBLUFF W B HEILIG FIEL", "CTRY": "US", "STATE": "NE", "ICAO": "KBFF", "LAT": 41.871, "LON": -103.593, "ELEV(M)": 1206.4, "BEGIN": 19480101, "END": 19721231 }, "geometry": { "type": "Point", "coordinates": [ -103.593, 41.871 ] } },
{ "type": "Feature", "properties": { "USAF": "999999", "WBAN": 24030, "STATION NAME": "SIDNEY MUNICIPAL AP", "CTRY": "US", "STATE": "NE", "ICAO": "KSNY", "LAT": 41.099, "LON": -102.986, "ELEV(M)": 1312.5, "BEGIN": 19480601, "END": 19550101 }, "geometry": { "type": "Point", "coordinates": [ -102.986, 41.099 ] } },
{ "type": "Feature", "properties": { "USAF": "999999", "WBAN": 24091, "STATION NAME": "IMPERIAL FAA AP", "CTRY": "US", "STATE": "NE", "ICAO": "KIML", "LAT": 40.51, "LON": -101.62, "ELEV(M)": 997.6, "BEGIN": 19501201, "END": 19541231 }, "geometry": { "type": "Point", "coordinates": [ -101.62, 40.51 ] } },
{ "type": "Feature", "properties": { "USAF": "999999", "WBAN": 94070, "STATION NAME": "TRENTON MUNICIPAL AIRPORT", "CTRY": "US", "STATE": "NE", "ICAO": "K9V2", "LAT": 40.187, "LON": -101.025, "ELEV(M)": 852.2, "BEGIN": 20021102, "END": 20041231 }, "geometry": { "type": "Point", "coordinates": [ -101.025, 40.187 ] } },
{ "type": "Feature", "properties": { "USAF": "999999", "WBAN": 94077, "STATION NAME": "HARRISON 20 SSE", "CTRY": "US", "STATE": "NE", "ICAO": null, "LAT": 42.425, "LON": -103.736, "ELEV(M)": 1343.0, "BEGIN": 20030827, "END": 20221231 }, "geometry": { "type": "Point", "coordinates": [ -103.736, 42.425 ] } },
{ "type": "Feature", "properties": { "USAF": "999999", "WBAN": 94079, "STATION NAME": "WHITMAN 5 ENE", "CTRY": "US", "STATE": "NE", "ICAO": null, "LAT": 42.068, "LON": -101.445, "ELEV(M)": 1140.0, "BEGIN": 20040912, "END": 20221231 }, "geometry": { "type": "Point", "coordinates": [ -101.445, 42.068 ] } },
{ "type": "Feature", "properties": { "USAF": "999999", "WBAN": 94995, "STATION NAME": "LINCOLN 8 ENE", "CTRY": "US", "STATE": "NE", "ICAO": null, "LAT": 40.848, "LON": -96.565, "ELEV(M)": 362.4, "BEGIN": 20020115, "END": 20221231 }, "geometry": { "type": "Point", "coordinates": [ -96.565, 40.848 ] } },
{ "type": "Feature", "properties": { "USAF": "999999", "WBAN": 94996, "STATION NAME": "LINCOLN 11 SW", "CTRY": "US", "STATE": "NE", "ICAO": null, "LAT": 40.695, "LON": -96.854, "ELEV(M)": 418.2, "BEGIN": 20020114, "END": 20221231 }, "geometry": { "type": "Point", "coordinates": [ -96.854, 40.695 ] } }
]
}
