{
"type": "FeatureCollection",
"name": "SP",
"crs": { "type": "name", "properties": { "name": "urn:ogc:def:crs:OGC:1.3:CRS84" } },
"features": [
{ "type": "Feature", "properties": { "USAF": "080010", "WBAN": 99999, "STATION NAME": "LA CORUNA", "CTRY": "SP", "STATE": null, "ICAO": null, "LAT": 43.367, "LON": -8.417, "ELEV(M)": 67.0, "BEGIN": 19310101, "END": 20221231 }, "geometry": { "type": "Point", "coordinates": [ -8.417, 43.367 ] } },
{ "type": "Feature", "properties": { "USAF": "080020", "WBAN": 99999, "STATION NAME": "A CORUNA", "CTRY": "SP", "STATE": null, "ICAO": "LECO", "LAT": 43.302, "LON": -8.377, "ELEV(M)": 98.5, "BEGIN": 19741001, "END": 20221231 }, "geometry": { "type": "Point", "coordinates": [ -8.377, 43.302 ] } },
{ "type": "Feature", "properties": { "USAF": "080030", "WBAN": 99999, "STATION NAME": "MONTEVENTOSO", "CTRY": "SP", "STATE": null, "ICAO": null, "LAT": 43.483, "LON": -8.317, "ELEV(M)": 240.0, "BEGIN": 19730101, "END": 19971231 }, "geometry": { "type": "Point", "coordinates": [ -8.317, 43.483 ] } },
{ "type": "Feature", "properties": { "USAF": "080050", "WBAN": 99999, "STATION NAME": "EL FERROL", "CTRY": "SP", "STATE": null, "ICAO": null, "LAT": 43.483, "LON": -8.233, "ELEV(M)": 9.0, "BEGIN": 19730101, "END": 20221219 }, "geometry": { "type": "Point", "coordinates": [ -8.233, 43.483 ] } },
{ "type": "Feature", "properties": { "USAF": "080070", "WBAN": 99999, "STATION NAME": "CERCEDA", "CTRY": "SP", "STATE": null, "ICAO": null, "LAT": 43.167, "LON": -8.533, "ELEV(M)": 595.0, "BEGIN": 20040517, "END": 20060207 }, "geometry": { "type": "Point", "coordinates": [ -8.533, 43.167 ] } },
{ "type": "Feature", "properties": { "USAF": "080080", "WBAN": 99999, "STATION NAME": "LUGO/ROZAS", "CTRY": "SP", "STATE": null, "ICAO": null, "LAT": 43.117, "LON": -7.45, "ELEV(M)": 446.0, "BEGIN": 19730101, "END": 20221231 }, "geometry": { "type": "Point", "coordinates": [ -7.45, 43.117 ] } },
{ "type": "Feature", "properties": { "USAF": "080110", "WBAN": 99999, "STATION NAME": "ASTURIAS", "CTRY": "SP", "STATE": null, "ICAO": "LEAS", "LAT": 43.564, "LON": -6.035, "ELEV(M)": 126.8, "BEGIN": 19730101, "END": 20221231 }, "geometry": { "type": "Point", "coordinates": [ -6.035, 43.564 ] } },
{ "type": "Feature", "properties": { "USAF": "080140", "WBAN": 99999, "STATION NAME": "GIJON-MUSEL", "CTRY": "SP", "STATE": null, "ICAO": null, "LAT": 43.567, "LON": -5.7, "ELEV(M)": 6.0, "BEGIN": 19730101, "END": 20221219 }, "geometry": { "type": "Point", "coordinates": [ -5.7, 43.567 ] } },
{ "type": "Feature", "properties": { "USAF": "080141", "WBAN": 99999, "STATION NAME": "CIUDAD REAL", "CTRY": "SP", "STATE": null, "ICAO": "LEAO", "LAT": 38.983, "LON": -3.917, "ELEV(M)": 629.0, "BEGIN": 20040510, "END": 20221231 }, "geometry": { "type": "Point", "coordinates": [ -3.917, 38.983 ] } },
{ "type": "Feature", "properties": { "USAF": "080142", "WBAN": 99999, "STATION NAME": "BARDENAS REALES", "CTRY": "SP", "STATE": null, "ICAO": "LEBR", "LAT": 42.2, "LON": -1.45, "ELEV(M)": 295.0, "BEGIN": 20040510, "END": 20221231 }, "geometry": { "type": "Point", "coordinates": [ -1.45, 42.2 ] } },
{ "type": "Feature", "properties": { "USAF": "080143", "WBAN": 99999, "STATION NAME": "VALENCIA", "CTRY": "SP", "STATE": null, "ICAO": "LEBT", "LAT": 39.583, "LON": -0.45, "ELEV(M)": 50.0, "BEGIN": 20040510, "END": 20221231 }, "geometry": { "type": "Point", "coordinates": [ -0.45, 39.583 ] } },
{ "type": "Feature", "properties": { "USAF": "080144", "WBAN": 99999, "STATION NAME": "ARMILLA", "CTRY": "SP", "STATE": null, "ICAO": "LEGA", "LAT": 37.133, "LON": -3.636, "ELEV(M)": 700.1, "BEGIN": 20040525, "END": 20221230 }, "geometry": { "type": "Point", "coordinates": [ -3.636, 37.133 ] } },
{ "type": "Feature", "properties": { "USAF": "080150", "WBAN": 99999, "STATION NAME": "OVIEDO", "CTRY": "SP", "STATE": null, "ICAO": null, "LAT": 43.35, "LON": -5.867, "ELEV(M)": 339.0, "BEGIN": 19730313, "END": 20221231 }, "geometry": { "type": "Point", "coordinates": [ -5.867, 43.35 ] } },
{ "type": "Feature", "properties": { "USAF": "080190", "WBAN": 99999, "STATION NAME": "AGUION", "CTRY": "SP", "STATE": null, "ICAO": null, "LAT": 43.467, "LON": -6.3, "ELEV(M)": 927.0, "BEGIN": 20041129, "END": 20060312 }, "geometry": { "type": "Point", "coordinates": [ -6.3, 43.467 ] } },
{ "type": "Feature", "properties": { "USAF": "080210", "WBAN": 99999, "STATION NAME": "SANTANDER", "CTRY": "SP", "STATE": null, "ICAO": "LEXJ", "LAT": 43.427, "LON": -3.82, "ELEV(M)": 4.9, "BEGIN": 19730101, "END": 20221231 }, "geometry": { "type": "Point", "coordinates": [ -3.82, 43.427 ] } },
{ "type": "Feature", "properties": { "USAF": "080230", "WBAN": 99999, "STATION NAME": "SANTANDER", "CTRY": "SP", "STATE": null, "ICAO": null, "LAT": 43.483, "LON": -3.8, "ELEV(M)": 59.0, "BEGIN": 19730101, "END": 20221231 }, "geometry": { "type": "Point", "coordinates": [ -3.8, 43.483 ] } },
{ "type": "Feature", "properties": { "USAF": "080250", "WBAN": 99999, "STATION NAME": "BILBAO", "CTRY": "SP", "STATE": null, "ICAO": "LEBB", "LAT": 43.301, "LON": -2.911, "ELEV(M)": 42.1, "BEGIN": 19730101, "END": 20221231 }, "geometry": { "type": "Point", "coordinates": [ -2.911, 43.301 ] } },
{ "type": "Feature", "properties": { "USAF": "080270", "WBAN": 99999, "STATION NAME": "SAN SEBASTIAN/IGUELDO", "CTRY": "SP", "STATE": null, "ICAO": null, "LAT": 43.3, "LON": -2.033, "ELEV(M)": 259.0, "BEGIN": 19730101, "END": 20221231 }, "geometry": { "type": "Point", "coordinates": [ -2.033, 43.3 ] } },
{ "type": "Feature", "properties": { "USAF": "080290", "WBAN": 99999, "STATION NAME": "SAN SEBASTIAN", "CTRY": "SP", "STATE": null, "ICAO": "LESO", "LAT": 43.357, "LON": -1.791, "ELEV(M)": 4.6, "BEGIN": 19730101, "END": 20221231 }, "geometry": { "type": "Point", "coordinates": [ -1.791, 43.357 ] } },
{ "type": "Feature", "properties": { "USAF": "080420", "WBAN": 99999, "STATION NAME": "SANTIAGO", "CTRY": "SP", "STATE": null, "ICAO": "LEST", "LAT": 42.896, "LON": -8.415, "ELEV(M)": 369.7, "BEGIN": 19730101, "END": 20221231 }, "geometry": { "type": "Point", "coordinates": [ -8.415, 42.896 ] } },
{ "type": "Feature", "properties": { "USAF": "080430", "WBAN": 99999, "STATION NAME": "MARIN", "CTRY": "SP", "STATE": null, "ICAO": null, "LAT": 42.4, "LON": -8.7, "ELEV(M)": 10.0, "BEGIN": 19740104, "END": 19971223 }, "geometry": { "type": "Point", "coordinates": [ -8.7, 42.4 ] } },
{ "type": "Feature", "properties": { "USAF": "080440", "WBAN": 99999, "STATION NAME": "PONTEVEDRA", "CTRY": "SP", "STATE": null, "ICAO": null, "LAT": 42.433, "LON": -8.617, "ELEV(M)": 108.0, "BEGIN": 19730101, "END": 20221231 }, "geometry": { "type": "Point", "coordinates": [ -8.617, 42.433 ] } },
{ "type": "Feature", "properties": { "USAF": "080450", "WBAN": 99999, "STATION NAME": "VIGO", "CTRY": "SP", "STATE": null, "ICAO": "LEVX", "LAT": 42.232, "LON": -8.627, "ELEV(M)": 260.6, "BEGIN": 19730101, "END": 20221231 }, "geometry": { "type": "Point", "coordinates": [ -8.627, 42.232 ] } },
{ "type": "Feature", "properties": { "USAF": "080460", "WBAN": 99999, "STATION NAME": "VIGO", "CTRY": "SP", "STATE": null, "ICAO": null, "LAT": 42.233, "LON": -8.75, "ELEV(M)": 85.0, "BEGIN": 19730101, "END": 19971231 }, "geometry": { "type": "Point", "coordinates": [ -8.75, 42.233 ] } },
{ "type": "Feature", "properties": { "USAF": "080480", "WBAN": 99999, "STATION NAME": "ORENSE", "CTRY": "SP", "STATE": null, "ICAO": null, "LAT": 42.333, "LON": -7.867, "ELEV(M)": 147.0, "BEGIN": 19730101, "END": 20221231 }, "geometry": { "type": "Point", "coordinates": [ -7.867, 42.333 ] } },
{ "type": "Feature", "properties": { "USAF": "080530", "WBAN": 99999, "STATION NAME": "PONFERRADA", "CTRY": "SP", "STATE": null, "ICAO": null, "LAT": 42.567, "LON": -6.6, "ELEV(M)": 550.0, "BEGIN": 19730102, "END": 20221229 }, "geometry": { "type": "Point", "coordinates": [ -6.6, 42.567 ] } },
{ "type": "Feature", "properties": { "USAF": "080550", "WBAN": 99999, "STATION NAME": "LEON", "CTRY": "SP", "STATE": null, "ICAO": "LELN", "LAT": 42.589, "LON": -5.656, "ELEV(M)": 916.2, "BEGIN": 19730101, "END": 20221231 }, "geometry": { "type": "Point", "coordinates": [ -5.656, 42.589 ] } },
{ "type": "Feature", "properties": { "USAF": "080710", "WBAN": 99999, "STATION NAME": "PALENCIA", "CTRY": "SP", "STATE": null, "ICAO": null, "LAT": 42.017, "LON": -4.533, "ELEV(M)": 750.0, "BEGIN": 19730101, "END": 20040219 }, "geometry": { "type": "Point", "coordinates": [ -4.533, 42.017 ] } },
{ "type": "Feature", "properties": { "USAF": "080720", "WBAN": 99999, "STATION NAME": "PALENCIA-AUTILLA PINO", "CTRY": "SP", "STATE": null, "ICAO": null, "LAT": 42.0, "LON": -4.6, "ELEV(M)": 860.0, "BEGIN": 20170712, "END": 20221122 }, "geometry": { "type": "Point", "coordinates": [ -4.6, 42.0 ] } },
{ "type": "Feature", "properties": { "USAF": "080750", "WBAN": 99999, "STATION NAME": "BURGOS", "CTRY": "SP", "STATE": null, "ICAO": "LEBG", "LAT": 42.358, "LON": -3.621, "ELEV(M)": 897.6, "BEGIN": 19730101, "END": 20221231 }, "geometry": { "type": "Point", "coordinates": [ -3.621, 42.358 ] } },
{ "type": "Feature", "properties": { "USAF": "080760", "WBAN": 99999, "STATION NAME": "BURGOS", "CTRY": "SP", "STATE": null, "ICAO": null, "LAT": 42.333, "LON": -3.7, "ELEV(M)": 860.0, "BEGIN": 19730101, "END": 19840102 }, "geometry": { "type": "Point", "coordinates": [ -3.7, 42.333 ] } },
{ "type": "Feature", "properties": { "USAF": "080800", "WBAN": 99999, "STATION NAME": "VITORIA", "CTRY": "SP", "STATE": null, "ICAO": "LEVT", "LAT": 42.883, "LON": -2.724, "ELEV(M)": 512.7, "BEGIN": 19730101, "END": 20221231 }, "geometry": { "type": "Point", "coordinates": [ -2.724, 42.883 ] } },
{ "type": "Feature", "properties": { "USAF": "080810", "WBAN": 99999, "STATION NAME": "BAKIO", "CTRY": "SP", "STATE": null, "ICAO": null, "LAT": 43.4, "LON": -2.85, "ELEV(M)": 576.0, "BEGIN": 20040812, "END": 20051129 }, "geometry": { "type": "Point", "coordinates": [ -2.85, 43.4 ] } },
{ "type": "Feature", "properties": { "USAF": "080830", "WBAN": 99999, "STATION NAME": "LOGRONO", "CTRY": "SP", "STATE": null, "ICAO": null, "LAT": 42.467, "LON": -2.383, "ELEV(M)": 369.0, "BEGIN": 19730101, "END": 20070528 }, "geometry": { "type": "Point", "coordinates": [ -2.383, 42.467 ] } },
{ "type": "Feature", "properties": { "USAF": "080840", "WBAN": 99999, "STATION NAME": "LOGRONO/AGONCILLO", "CTRY": "SP", "STATE": null, "ICAO": "LELO", "LAT": 42.45, "LON": -2.333, "ELEV(M)": 363.0, "BEGIN": 19730101, "END": 20221231 }, "geometry": { "type": "Point", "coordinates": [ -2.333, 42.45 ] } },
{ "type": "Feature", "properties": { "USAF": "080850", "WBAN": 99999, "STATION NAME": "PAMPLONA", "CTRY": "SP", "STATE": null, "ICAO": "LEPP", "LAT": 42.77, "LON": -1.646, "ELEV(M)": 458.4, "BEGIN": 19730313, "END": 20221231 }, "geometry": { "type": "Point", "coordinates": [ -1.646, 42.77 ] } },
{ "type": "Feature", "properties": { "USAF": "080860", "WBAN": 99999, "STATION NAME": "PAMPLONA", "CTRY": "SP", "STATE": null, "ICAO": null, "LAT": 42.817, "LON": -1.667, "ELEV(M)": 461.0, "BEGIN": 19730101, "END": 20010705 }, "geometry": { "type": "Point", "coordinates": [ -1.667, 42.817 ] } },
{ "type": "Feature", "properties": { "USAF": "080870", "WBAN": 99999, "STATION NAME": "BARDENAS REALES", "CTRY": "SP", "STATE": null, "ICAO": null, "LAT": 42.2, "LON": -1.45, "ELEV(M)": 295.0, "BEGIN": 19700119, "END": 20221227 }, "geometry": { "type": "Point", "coordinates": [ -1.45, 42.2 ] } },
{ "type": "Feature", "properties": { "USAF": "080910", "WBAN": 99999, "STATION NAME": "JACA", "CTRY": "SP", "STATE": null, "ICAO": null, "LAT": 42.567, "LON": -3.133, "ELEV(M)": 828.0, "BEGIN": 19830613, "END": 20221104 }, "geometry": { "type": "Point", "coordinates": [ -3.133, 42.567 ] } },
{ "type": "Feature", "properties": { "USAF": "080940", "WBAN": 99999, "STATION NAME": "HUESCA-PIRINEOS", "CTRY": "SP", "STATE": null, "ICAO": "LEHC", "LAT": 42.083, "LON": -0.333, "ELEV(M)": 554.0, "BEGIN": 19730102, "END": 20221231 }, "geometry": { "type": "Point", "coordinates": [ -0.333, 42.083 ] } },
{ "type": "Feature", "properties": { "USAF": "080960", "WBAN": 99999, "STATION NAME": "CANDANCHU", "CTRY": "SP", "STATE": null, "ICAO": null, "LAT": 42.783, "LON": -0.533, "ELEV(M)": 1608.0, "BEGIN": 19730105, "END": 20221231 }, "geometry": { "type": "Point", "coordinates": [ -0.533, 42.783 ] } },
{ "type": "Feature", "properties": { "USAF": "081120", "WBAN": 99999, "STATION NAME": "TALAR", "CTRY": "SP", "STATE": null, "ICAO": null, "LAT": 42.2, "LON": 0.867, "ELEV(M)": 800.0, "BEGIN": 19840503, "END": 20221231 }, "geometry": { "type": "Point", "coordinates": [ 0.867, 42.2 ] } },
{ "type": "Feature", "properties": { "USAF": "081170", "WBAN": 99999, "STATION NAME": "LA MOLINA", "CTRY": "SP", "STATE": null, "ICAO": null, "LAT": 42.333, "LON": 1.933, "ELEV(M)": 1702.0, "BEGIN": 19730103, "END": 20221222 }, "geometry": { "type": "Point", "coordinates": [ 1.933, 42.333 ] } },
{ "type": "Feature", "properties": { "USAF": "081300", "WBAN": 99999, "STATION NAME": "ZAMORA", "CTRY": "SP", "STATE": null, "ICAO": null, "LAT": 41.517, "LON": -5.733, "ELEV(M)": 667.0, "BEGIN": 19730101, "END": 20221231 }, "geometry": { "type": "Point", "coordinates": [ -5.733, 41.517 ] } },
{ "type": "Feature", "properties": { "USAF": "081400", "WBAN": 99999, "STATION NAME": "VALLADOLID", "CTRY": "SP", "STATE": null, "ICAO": "LEVD", "LAT": 41.706, "LON": -4.852, "ELEV(M)": 845.8, "BEGIN": 19730101, "END": 20221231 }, "geometry": { "type": "Point", "coordinates": [ -4.852, 41.706 ] } },
{ "type": "Feature", "properties": { "USAF": "081410", "WBAN": 99999, "STATION NAME": "VALLADOLID", "CTRY": "SP", "STATE": null, "ICAO": null, "LAT": 41.633, "LON": -4.75, "ELEV(M)": 735.0, "BEGIN": 19730101, "END": 20221231 }, "geometry": { "type": "Point", "coordinates": [ -4.75, 41.633 ] } },
{ "type": "Feature", "properties": { "USAF": "081480", "WBAN": 99999, "STATION NAME": "SORIA", "CTRY": "SP", "STATE": null, "ICAO": null, "LAT": 41.783, "LON": -2.483, "ELEV(M)": 1082.0, "BEGIN": 19730101, "END": 20221231 }, "geometry": { "type": "Point", "coordinates": [ -2.483, 41.783 ] } },
{ "type": "Feature", "properties": { "USAF": "081570", "WBAN": 99999, "STATION NAME": "DAROCA I", "CTRY": "SP", "STATE": null, "ICAO": null, "LAT": 41.117, "LON": -1.417, "ELEV(M)": 779.0, "BEGIN": 19730101, "END": 20210419 }, "geometry": { "type": "Point", "coordinates": [ -1.417, 41.117 ] } },
{ "type": "Feature", "properties": { "USAF": "081600", "WBAN": 99999, "STATION NAME": "ZARAGOZA AB", "CTRY": "SP", "STATE": null, "ICAO": "LEZG", "LAT": 41.666, "LON": -1.042, "ELEV(M)": 263.0, "BEGIN": 19730101, "END": 20221231 }, "geometry": { "type": "Point", "coordinates": [ -1.042, 41.666 ] } },
{ "type": "Feature", "properties": { "USAF": "081605", "WBAN": 99999, "STATION NAME": "ZARAGOZA (USAFB)", "CTRY": "SP", "STATE": null, "ICAO": "LEZA", "LAT": 41.667, "LON": -1.05, "ELEV(M)": 263.0, "BEGIN": 19570701, "END": 20010108 }, "geometry": { "type": "Point", "coordinates": [ -1.05, 41.667 ] } },
{ "type": "Feature", "properties": { "USAF": "081606", "WBAN": 99999, "STATION NAME": "ZARAGOZA (MIL/CIV)&", "CTRY": "SP", "STATE": null, "ICAO": null, "LAT": 41.667, "LON": -1.033, "ELEV(M)": 263.0, "BEGIN": 19770427, "END": 19830209 }, "geometry": { "type": "Point", "coordinates": [ -1.033, 41.667 ] } },
{ "type": "Feature", "properties": { "USAF": "081610", "WBAN": 99999, "STATION NAME": "ZARAGOZA", "CTRY": "SP", "STATE": null, "ICAO": null, "LAT": 41.633, "LON": -0.9, "ELEV(M)": 222.0, "BEGIN": 19730101, "END": 20050614 }, "geometry": { "type": "Point", "coordinates": [ -0.9, 41.633 ] } },
{ "type": "Feature", "properties": { "USAF": "081620", "WBAN": 99999, "STATION NAME": "PERDIGUERA", "CTRY": "SP", "STATE": null, "ICAO": null, "LAT": 41.733, "LON": -0.55, "ELEV(M)": 820.0, "BEGIN": 20041201, "END": 20050404 }, "geometry": { "type": "Point", "coordinates": [ -0.55, 41.733 ] } },
{ "type": "Feature", "properties": { "USAF": "081710", "WBAN": 99999, "STATION NAME": "LERIDA", "CTRY": "SP", "STATE": null, "ICAO": null, "LAT": 41.633, "LON": 0.6, "ELEV(M)": 199.0, "BEGIN": 19730101, "END": 20221231 }, "geometry": { "type": "Point", "coordinates": [ 0.6, 41.633 ] } },
{ "type": "Feature", "properties": { "USAF": "081750", "WBAN": 99999, "STATION NAME": "REUS", "CTRY": "SP", "STATE": null, "ICAO": "LERS", "LAT": 41.147, "LON": 1.167, "ELEV(M)": 71.3, "BEGIN": 19730101, "END": 20221231 }, "geometry": { "type": "Point", "coordinates": [ 1.167, 41.147 ] } },
{ "type": "Feature", "properties": { "USAF": "081760", "WBAN": 99999, "STATION NAME": "TARRAGONA", "CTRY": "SP", "STATE": null, "ICAO": null, "LAT": 41.117, "LON": 1.25, "ELEV(M)": 64.0, "BEGIN": 19730101, "END": 20040105 }, "geometry": { "type": "Point", "coordinates": [ 1.25, 41.117 ] } },
{ "type": "Feature", "properties": { "USAF": "081763", "WBAN": 99999, "STATION NAME": "SABADELL", "CTRY": "SP", "STATE": null, "ICAO": "LELL", "LAT": 41.517, "LON": 2.1, "ELEV(M)": 250.0, "BEGIN": 20000830, "END": 20221231 }, "geometry": { "type": "Point", "coordinates": [ 2.1, 41.517 ] } },
{ "type": "Feature", "properties": { "USAF": "081800", "WBAN": 99999, "STATION NAME": "BARCELONA CITY", "CTRY": "SP", "STATE": null, "ICAO": null, "LAT": 41.417, "LON": 2.133, "ELEV(M)": 176.0, "BEGIN": 19730101, "END": 20221231 }, "geometry": { "type": "Point", "coordinates": [ 2.133, 41.417 ] } },
{ "type": "Feature", "properties": { "USAF": "081810", "WBAN": 99999, "STATION NAME": "BARCELONA", "CTRY": "SP", "STATE": null, "ICAO": "LEBL", "LAT": 41.297, "LON": 2.078, "ELEV(M)": 3.7, "BEGIN": 19730101, "END": 20221231 }, "geometry": { "type": "Point", "coordinates": [ 2.078, 41.297 ] } },
{ "type": "Feature", "properties": { "USAF": "081820", "WBAN": 99999, "STATION NAME": "MONTSENY MTN RANGE", "CTRY": "SP", "STATE": null, "ICAO": null, "LAT": 41.783, "LON": 2.433, "ELEV(M)": 1708.0, "BEGIN": 19730502, "END": 20060111 }, "geometry": { "type": "Point", "coordinates": [ 2.433, 41.783 ] } },
{ "type": "Feature", "properties": { "USAF": "081830", "WBAN": 99999, "STATION NAME": "GERONA-IN-CATALUNA", "CTRY": "SP", "STATE": null, "ICAO": null, "LAT": 41.983, "LON": 2.833, "ELEV(M)": 98.0, "BEGIN": 19730101, "END": 19780808 }, "geometry": { "type": "Point", "coordinates": [ 2.833, 41.983 ] } },
{ "type": "Feature", "properties": { "USAF": "081840", "WBAN": 99999, "STATION NAME": "GIRONA", "CTRY": "SP", "STATE": null, "ICAO": "LEGE", "LAT": 41.901, "LON": 2.761, "ELEV(M)": 142.6, "BEGIN": 19731129, "END": 20221231 }, "geometry": { "type": "Point", "coordinates": [ 2.761, 41.901 ] } },
{ "type": "Feature", "properties": { "USAF": "081860", "WBAN": 99999, "STATION NAME": "SAN LORENZO", "CTRY": "SP", "STATE": null, "ICAO": null, "LAT": 41.633, "LON": 2.017, "ELEV(M)": 1092.0, "BEGIN": 19731108, "END": 20220406 }, "geometry": { "type": "Point", "coordinates": [ 2.017, 41.633 ] } },
{ "type": "Feature", "properties": { "USAF": "082010", "WBAN": 99999, "STATION NAME": "SALAMANCA", "CTRY": "SP", "STATE": null, "ICAO": null, "LAT": 40.95, "LON": -5.65, "ELEV(M)": 787.0, "BEGIN": 19751105, "END": 20220913 }, "geometry": { "type": "Point", "coordinates": [ -5.65, 40.95 ] } },
{ "type": "Feature", "properties": { "USAF": "082020", "WBAN": 99999, "STATION NAME": "SALAMANCA", "CTRY": "SP", "STATE": null, "ICAO": "LESA", "LAT": 40.952, "LON": -5.502, "ELEV(M)": 791.0, "BEGIN": 19730101, "END": 20221231 }, "geometry": { "type": "Point", "coordinates": [ -5.502, 40.952 ] } },
{ "type": "Feature", "properties": { "USAF": "082100", "WBAN": 99999, "STATION NAME": "AVILA", "CTRY": "SP", "STATE": null, "ICAO": null, "LAT": 40.667, "LON": -4.683, "ELEV(M)": 1132.0, "BEGIN": 19730101, "END": 20221231 }, "geometry": { "type": "Point", "coordinates": [ -4.683, 40.667 ] } },
{ "type": "Feature", "properties": { "USAF": "082130", "WBAN": 99999, "STATION NAME": "SEGOVIA", "CTRY": "SP", "STATE": null, "ICAO": null, "LAT": 40.95, "LON": -4.133, "ELEV(M)": 1005.0, "BEGIN": 19730101, "END": 20221231 }, "geometry": { "type": "Point", "coordinates": [ -4.133, 40.95 ] } },
{ "type": "Feature", "properties": { "USAF": "082150", "WBAN": 99999, "STATION NAME": "NAVACERRADA PUERTO", "CTRY": "SP", "STATE": null, "ICAO": null, "LAT": 40.8, "LON": -4.017, "ELEV(M)": 1888.0, "BEGIN": 19730101, "END": 20221231 }, "geometry": { "type": "Point", "coordinates": [ -4.017, 40.8 ] } },
{ "type": "Feature", "properties": { "USAF": "082190", "WBAN": 99999, "STATION NAME": "MADRI-COLMENAR", "CTRY": "SP", "STATE": null, "ICAO": "LECV", "LAT": 40.65, "LON": -3.733, "ELEV(M)": -999.9, "BEGIN": 19970506, "END": 20221230 }, "geometry": { "type": "Point", "coordinates": [ -3.733, 40.65 ] } },
{ "type": "Feature", "properties": { "USAF": "082200", "WBAN": 99999, "STATION NAME": "MADRID/C. UNIVERSITARIA", "CTRY": "SP", "STATE": null, "ICAO": null, "LAT": 40.45, "LON": -3.717, "ELEV(M)": 669.0, "BEGIN": 19791201, "END": 20221215 }, "geometry": { "type": "Point", "coordinates": [ -3.717, 40.45 ] } },
{ "type": "Feature", "properties": { "USAF": "082204", "WBAN": 99999, "STATION NAME": "MADRI-COLMENAR", "CTRY": "SP", "STATE": null, "ICAO": null, "LAT": 40.65, "LON": -3.733, "ELEV(M)": 0.0, "BEGIN": 19920807, "END": 19930820 }, "geometry": { "type": "Point", "coordinates": [ -3.733, 40.65 ] } },
{ "type": "Feature", "properties": { "USAF": "082210", "WBAN": 99999, "STATION NAME": "BARAJAS", "CTRY": "SP", "STATE": null, "ICAO": "LEMD", "LAT": 40.494, "LON": -3.567, "ELEV(M)": 609.6, "BEGIN": 19310102, "END": 20221231 }, "geometry": { "type": "Point", "coordinates": [ -3.567, 40.494 ] } },
{ "type": "Feature", "properties": { "USAF": "082211", "WBAN": 99999, "STATION NAME": "MADRID WEATHER CENTER", "CTRY": "SP", "STATE": null, "ICAO": "LEMM", "LAT": 40.483, "LON": -3.583, "ELEV(M)": 633.0, "BEGIN": 20041209, "END": 20220316 }, "geometry": { "type": "Point", "coordinates": [ -3.583, 40.483 ] } },
{ "type": "Feature", "properties": { "USAF": "082220", "WBAN": 99999, "STATION NAME": "MADRID RETIRO", "CTRY": "SP", "STATE": null, "ICAO": null, "LAT": 40.417, "LON": -3.683, "ELEV(M)": 667.0, "BEGIN": 19990412, "END": 20221107 }, "geometry": { "type": "Point", "coordinates": [ -3.683, 40.417 ] } },
{ "type": "Feature", "properties": { "USAF": "082230", "WBAN": 99999, "STATION NAME": "CUATRO VIENTOS", "CTRY": "SP", "STATE": null, "ICAO": "LEVS", "LAT": 40.371, "LON": -3.785, "ELEV(M)": 691.0, "BEGIN": 19730719, "END": 20221231 }, "geometry": { "type": "Point", "coordinates": [ -3.785, 40.371 ] } },
{ "type": "Feature", "properties": { "USAF": "082240", "WBAN": 99999, "STATION NAME": "GETAFE", "CTRY": "SP", "STATE": null, "ICAO": "LEGT", "LAT": 40.294, "LON": -3.724, "ELEV(M)": 618.4, "BEGIN": 19730101, "END": 20221230 }, "geometry": { "type": "Point", "coordinates": [ -3.724, 40.294 ] } },
{ "type": "Feature", "properties": { "USAF": "082260", "WBAN": 99999, "STATION NAME": "GUADALAJARA", "CTRY": "SP", "STATE": null, "ICAO": null, "LAT": 40.667, "LON": -3.167, "ELEV(M)": 640.0, "BEGIN": 19730101, "END": 20221231 }, "geometry": { "type": "Point", "coordinates": [ -3.167, 40.667 ] } },
{ "type": "Feature", "properties": { "USAF": "082270", "WBAN": 99999, "STATION NAME": "TORREJON", "CTRY": "SP", "STATE": null, "ICAO": "LETO", "LAT": 40.497, "LON": -3.446, "ELEV(M)": 617.5, "BEGIN": 19571001, "END": 20221231 }, "geometry": { "type": "Point", "coordinates": [ -3.446, 40.497 ] } },
{ "type": "Feature", "properties": { "USAF": "082310", "WBAN": 99999, "STATION NAME": "CUENCA", "CTRY": "SP", "STATE": null, "ICAO": null, "LAT": 40.067, "LON": -2.133, "ELEV(M)": 946.0, "BEGIN": 19730101, "END": 20221231 }, "geometry": { "type": "Point", "coordinates": [ -2.133, 40.067 ] } },
{ "type": "Feature", "properties": { "USAF": "082320", "WBAN": 99999, "STATION NAME": "MOLINA DE ARAGON", "CTRY": "SP", "STATE": null, "ICAO": null, "LAT": 40.85, "LON": -1.883, "ELEV(M)": 1063.0, "BEGIN": 19730102, "END": 20221231 }, "geometry": { "type": "Point", "coordinates": [ -1.883, 40.85 ] } },
{ "type": "Feature", "properties": { "USAF": "082330", "WBAN": 99999, "STATION NAME": "CALAMOCHA", "CTRY": "SP", "STATE": null, "ICAO": "LECH", "LAT": 40.933, "LON": -1.3, "ELEV(M)": 889.0, "BEGIN": 19730101, "END": 20221231 }, "geometry": { "type": "Point", "coordinates": [ -1.3, 40.933 ] } },
{ "type": "Feature", "properties": { "USAF": "082350", "WBAN": 99999, "STATION NAME": "TERUEL", "CTRY": "SP", "STATE": null, "ICAO": null, "LAT": 40.35, "LON": -1.117, "ELEV(M)": 902.0, "BEGIN": 19730101, "END": 20221209 }, "geometry": { "type": "Point", "coordinates": [ -1.117, 40.35 ] } },
{ "type": "Feature", "properties": { "USAF": "082380", "WBAN": 99999, "STATION NAME": "TORTOSA", "CTRY": "SP", "STATE": null, "ICAO": null, "LAT": 40.817, "LON": 0.5, "ELEV(M)": 50.0, "BEGIN": 19730101, "END": 20221231 }, "geometry": { "type": "Point", "coordinates": [ 0.5, 40.817 ] } },
{ "type": "Feature", "properties": { "USAF": "082610", "WBAN": 99999, "STATION NAME": "CACERES", "CTRY": "SP", "STATE": null, "ICAO": null, "LAT": 39.467, "LON": -6.333, "ELEV(M)": 405.0, "BEGIN": 19730101, "END": 20221231 }, "geometry": { "type": "Point", "coordinates": [ -6.333, 39.467 ] } },
{ "type": "Feature", "properties": { "USAF": "082620", "WBAN": 99999, "STATION NAME": "SIERRA DE FUENTES", "CTRY": "SP", "STATE": null, "ICAO": null, "LAT": 39.433, "LON": -6.283, "ELEV(M)": 667.0, "BEGIN": 20050106, "END": 20051224 }, "geometry": { "type": "Point", "coordinates": [ -6.283, 39.433 ] } },
{ "type": "Feature", "properties": { "USAF": "082720", "WBAN": 99999, "STATION NAME": "TOLEDO", "CTRY": "SP", "STATE": null, "ICAO": null, "LAT": 39.883, "LON": -4.05, "ELEV(M)": 516.0, "BEGIN": 19730101, "END": 20221231 }, "geometry": { "type": "Point", "coordinates": [ -4.05, 39.883 ] } },
{ "type": "Feature", "properties": { "USAF": "082800", "WBAN": 99999, "STATION NAME": "ALBACETE", "CTRY": "SP", "STATE": null, "ICAO": "LEAB", "LAT": 38.949, "LON": -1.864, "ELEV(M)": 701.6, "BEGIN": 19730101, "END": 20221231 }, "geometry": { "type": "Point", "coordinates": [ -1.864, 38.949 ] } },
{ "type": "Feature", "properties": { "USAF": "082820", "WBAN": 99999, "STATION NAME": "INIESTA", "CTRY": "SP", "STATE": null, "ICAO": null, "LAT": 39.433, "LON": -1.75, "ELEV(M)": 762.0, "BEGIN": 19751101, "END": 19781003 }, "geometry": { "type": "Point", "coordinates": [ -1.75, 39.433 ] } },
{ "type": "Feature", "properties": { "USAF": "082840", "WBAN": 99999, "STATION NAME": "VALENCIA", "CTRY": "SP", "STATE": null, "ICAO": "LEVC", "LAT": 39.489, "LON": -0.482, "ELEV(M)": 68.6, "BEGIN": 19730101, "END": 20221231 }, "geometry": { "type": "Point", "coordinates": [ -0.482, 39.489 ] } },
{ "type": "Feature", "properties": { "USAF": "082850", "WBAN": 99999, "STATION NAME": "VALENCIA VIVEROS", "CTRY": "SP", "STATE": null, "ICAO": null, "LAT": 39.483, "LON": -0.383, "ELEV(M)": 11.0, "BEGIN": 19730101, "END": 20221129 }, "geometry": { "type": "Point", "coordinates": [ -0.383, 39.483 ] } },
{ "type": "Feature", "properties": { "USAF": "082860", "WBAN": 99999, "STATION NAME": "CASTELLON-ALMAZORA", "CTRY": "SP", "STATE": null, "ICAO": null, "LAT": 39.95, "LON": -0.067, "ELEV(M)": 43.5, "BEGIN": 19730101, "END": 20221231 }, "geometry": { "type": "Point", "coordinates": [ -0.067, 39.95 ] } },
{ "type": "Feature", "properties": { "USAF": "082900", "WBAN": 99999, "STATION NAME": "ALCIRA/ALZIRA", "CTRY": "SP", "STATE": null, "ICAO": null, "LAT": 39.15, "LON": -0.433, "ELEV(M)": 20.0, "BEGIN": 19730102, "END": 20221225 }, "geometry": { "type": "Point", "coordinates": [ -0.433, 39.15 ] } },
{ "type": "Feature", "properties": { "USAF": "083010", "WBAN": 99999, "STATION NAME": "PALMA DE MALLORCA CMT", "CTRY": "SP", "STATE": null, "ICAO": null, "LAT": 39.55, "LON": 2.633, "ELEV(M)": 6.0, "BEGIN": 19800418, "END": 20221221 }, "geometry": { "type": "Point", "coordinates": [ 2.633, 39.55 ] } },
{ "type": "Feature", "properties": { "USAF": "083020", "WBAN": 99999, "STATION NAME": "MALLORCA-SON BONET", "CTRY": "SP", "STATE": null, "ICAO": null, "LAT": 39.6, "LON": 2.7, "ELEV(M)": 41.0, "BEGIN": 20210712, "END": 20221123 }, "geometry": { "type": "Point", "coordinates": [ 2.7, 39.6 ] } },
{ "type": "Feature", "properties": { "USAF": "083030", "WBAN": 99999, "STATION NAME": "ALFABIA MTN RANGE", "CTRY": "SP", "STATE": null, "ICAO": null, "LAT": 39.733, "LON": 2.717, "ELEV(M)": 1015.0, "BEGIN": 19730101, "END": 20221128 }, "geometry": { "type": "Point", "coordinates": [ 2.717, 39.733 ] } },
{ "type": "Feature", "properties": { "USAF": "083060", "WBAN": 99999, "STATION NAME": "PALMA DE MALLORCA", "CTRY": "SP", "STATE": null, "ICAO": "LEPA", "LAT": 39.55, "LON": 2.733, "ELEV(M)": 8.0, "BEGIN": 19730101, "END": 20221231 }, "geometry": { "type": "Point", "coordinates": [ 2.733, 39.55 ] } },
{ "type": "Feature", "properties": { "USAF": "083070", "WBAN": 99999, "STATION NAME": "POLLENSA", "CTRY": "SP", "STATE": null, "ICAO": null, "LAT": 39.9, "LON": 3.1, "ELEV(M)": 7.0, "BEGIN": 19730102, "END": 19780602 }, "geometry": { "type": "Point", "coordinates": [ 3.1, 39.9 ] } },
{ "type": "Feature", "properties": { "USAF": "083140", "WBAN": 99999, "STATION NAME": "MENORCA", "CTRY": "SP", "STATE": null, "ICAO": "LEMH", "LAT": 39.863, "LON": 4.219, "ELEV(M)": 90.8, "BEGIN": 19310103, "END": 20221231 }, "geometry": { "type": "Point", "coordinates": [ 4.219, 39.863 ] } },
{ "type": "Feature", "properties": { "USAF": "083300", "WBAN": 99999, "STATION NAME": "TALAVERA LA REAL", "CTRY": "SP", "STATE": null, "ICAO": "LEBZ", "LAT": 38.891, "LON": -6.821, "ELEV(M)": 185.6, "BEGIN": 19730101, "END": 20221231 }, "geometry": { "type": "Point", "coordinates": [ -6.821, 38.891 ] } },
{ "type": "Feature", "properties": { "USAF": "083350", "WBAN": 99999, "STATION NAME": "HINOJOSA DEL DUQUE", "CTRY": "SP", "STATE": null, "ICAO": "LEHI", "LAT": 38.517, "LON": -5.117, "ELEV(M)": 540.0, "BEGIN": 19730101, "END": 20220912 }, "geometry": { "type": "Point", "coordinates": [ -5.117, 38.517 ] } },
{ "type": "Feature", "properties": { "USAF": "083480", "WBAN": 99999, "STATION NAME": "CIUDAD REAL", "CTRY": "SP", "STATE": null, "ICAO": "LERL", "LAT": 38.983, "LON": -3.917, "ELEV(M)": 629.0, "BEGIN": 19730101, "END": 20221231 }, "geometry": { "type": "Point", "coordinates": [ -3.917, 38.983 ] } },
{ "type": "Feature", "properties": { "USAF": "083550", "WBAN": 99999, "STATION NAME": "BOGUS SPANISH", "CTRY": "SP", "STATE": null, "ICAO": null, "LAT": null, "LON": null, "ELEV(M)": null, "BEGIN": 19830401, "END": 20011129 }, "geometry": null },
{ "type": "Feature", "properties": { "USAF": "083590", "WBAN": 99999, "STATION NAME": "ALICANTE", "CTRY": "SP", "STATE": null, "ICAO": null, "LAT": 38.367, "LON": -0.5, "ELEV(M)": 82.0, "BEGIN": 19730101, "END": 20221231 }, "geometry": { "type": "Point", "coordinates": [ -0.5, 38.367 ] } },
{ "type": "Feature", "properties": { "USAF": "083600", "WBAN": 99999, "STATION NAME": "ALICANTE", "CTRY": "SP", "STATE": null, "ICAO": "LEAL", "LAT": 38.282, "LON": -0.558, "ELEV(M)": 43.3, "BEGIN": 19730101, "END": 20221231 }, "geometry": { "type": "Point", "coordinates": [ -0.558, 38.282 ] } },
{ "type": "Feature", "properties": { "USAF": "083610", "WBAN": 99999, "STATION NAME": "AITANA (PEAK)", "CTRY": "SP", "STATE": null, "ICAO": null, "LAT": 38.65, "LON": -0.267, "ELEV(M)": 1497.0, "BEGIN": 19730103, "END": 20051017 }, "geometry": { "type": "Point", "coordinates": [ -0.267, 38.65 ] } },
{ "type": "Feature", "properties": { "USAF": "083620", "WBAN": 99999, "STATION NAME": "BENIDORM", "CTRY": "SP", "STATE": null, "ICAO": null, "LAT": 38.533, "LON": -0.15, "ELEV(M)": 10.0, "BEGIN": 19760201, "END": 19840629 }, "geometry": { "type": "Point", "coordinates": [ -0.15, 38.533 ] } },
{ "type": "Feature", "properties": { "USAF": "083650", "WBAN": 99999, "STATION NAME": "DENIA", "CTRY": "SP", "STATE": null, "ICAO": null, "LAT": 38.833, "LON": 0.117, "ELEV(M)": 15.0, "BEGIN": 19730102, "END": 20221231 }, "geometry": { "type": "Point", "coordinates": [ 0.117, 38.833 ] } },
{ "type": "Feature", "properties": { "USAF": "083730", "WBAN": 99999, "STATION NAME": "IBIZA", "CTRY": "SP", "STATE": null, "ICAO": "LEIB", "LAT": 38.873, "LON": 1.373, "ELEV(M)": 6.1, "BEGIN": 19730101, "END": 20221231 }, "geometry": { "type": "Point", "coordinates": [ 1.373, 38.873 ] } },
{ "type": "Feature", "properties": { "USAF": "083830", "WBAN": 99999, "STATION NAME": "HUELVA", "CTRY": "SP", "STATE": null, "ICAO": null, "LAT": 37.283, "LON": -6.917, "ELEV(M)": 20.0, "BEGIN": 19730101, "END": 20221231 }, "geometry": { "type": "Point", "coordinates": [ -6.917, 37.283 ] } },
{ "type": "Feature", "properties": { "USAF": "083840", "WBAN": 99999, "STATION NAME": "EL ARENOSILLO", "CTRY": "SP", "STATE": null, "ICAO": null, "LAT": 37.1, "LON": -6.733, "ELEV(M)": 41.0, "BEGIN": 20020430, "END": 20070307 }, "geometry": { "type": "Point", "coordinates": [ -6.733, 37.1 ] } },
{ "type": "Feature", "properties": { "USAF": "083900", "WBAN": 99999, "STATION NAME": "SEVILLA/TABLADA", "CTRY": "SP", "STATE": null, "ICAO": null, "LAT": 37.367, "LON": -6.0, "ELEV(M)": 14.0, "BEGIN": 19730101, "END": 20051206 }, "geometry": { "type": "Point", "coordinates": [ -6.0, 37.367 ] } },
{ "type": "Feature", "properties": { "USAF": "083905", "WBAN": 99999, "STATION NAME": "SEVILLA HELIPORT", "CTRY": "SP", "STATE": null, "ICAO": "LEEC", "LAT": 37.317, "LON": -6.0, "ELEV(M)": 5.0, "BEGIN": 20070629, "END": 20221230 }, "geometry": { "type": "Point", "coordinates": [ -6.0, 37.317 ] } },
{ "type": "Feature", "properties": { "USAF": "083910", "WBAN": 99999, "STATION NAME": "SEVILLA", "CTRY": "SP", "STATE": null, "ICAO": "LEZL", "LAT": 37.418, "LON": -5.893, "ELEV(M)": 33.8, "BEGIN": 19730101, "END": 20221231 }, "geometry": { "type": "Point", "coordinates": [ -5.893, 37.418 ] } },
{ "type": "Feature", "properties": { "USAF": "083970", "WBAN": 99999, "STATION NAME": "MORON AB", "CTRY": "SP", "STATE": null, "ICAO": "LEMO", "LAT": 37.175, "LON": -5.616, "ELEV(M)": 86.9, "BEGIN": 19580102, "END": 20221231 }, "geometry": { "type": "Point", "coordinates": [ -5.616, 37.175 ] } },
{ "type": "Feature", "properties": { "USAF": "084100", "WBAN": 99999, "STATION NAME": "CORDOBA", "CTRY": "SP", "STATE": null, "ICAO": "LEBA", "LAT": 37.842, "LON": -4.849, "ELEV(M)": 90.5, "BEGIN": 19730101, "END": 20221231 }, "geometry": { "type": "Point", "coordinates": [ -4.849, 37.842 ] } },
{ "type": "Feature", "properties": { "USAF": "084170", "WBAN": 99999, "STATION NAME": "JAEN", "CTRY": "SP", "STATE": null, "ICAO": null, "LAT": 37.783, "LON": -3.817, "ELEV(M)": 580.0, "BEGIN": 19730201, "END": 20221231 }, "geometry": { "type": "Point", "coordinates": [ -3.817, 37.783 ] } },
{ "type": "Feature", "properties": { "USAF": "084190", "WBAN": 99999, "STATION NAME": "GRANADA", "CTRY": "SP", "STATE": null, "ICAO": "LEGR", "LAT": 37.189, "LON": -3.777, "ELEV(M)": 566.9, "BEGIN": 19730101, "END": 20221231 }, "geometry": { "type": "Point", "coordinates": [ -3.777, 37.189 ] } },
{ "type": "Feature", "properties": { "USAF": "084200", "WBAN": 99999, "STATION NAME": "GRANADA / ARMILLA", "CTRY": "SP", "STATE": null, "ICAO": null, "LAT": 37.133, "LON": -3.617, "ELEV(M)": 717.0, "BEGIN": 19730101, "END": 20221231 }, "geometry": { "type": "Point", "coordinates": [ -3.617, 37.133 ] } },
{ "type": "Feature", "properties": { "USAF": "084290", "WBAN": 99999, "STATION NAME": "ALCANTARILLA", "CTRY": "SP", "STATE": null, "ICAO": "LERI", "LAT": 37.951, "LON": -1.23, "ELEV(M)": 76.2, "BEGIN": 19730101, "END": 20221231 }, "geometry": { "type": "Point", "coordinates": [ -1.23, 37.951 ] } },
{ "type": "Feature", "properties": { "USAF": "084300", "WBAN": 99999, "STATION NAME": "MURCIA", "CTRY": "SP", "STATE": null, "ICAO": null, "LAT": 38.0, "LON": -1.167, "ELEV(M)": 62.0, "BEGIN": 19730101, "END": 20221231 }, "geometry": { "type": "Point", "coordinates": [ -1.167, 38.0 ] } },
{ "type": "Feature", "properties": { "USAF": "084310", "WBAN": 99999, "STATION NAME": "CASTILLO GALERAS", "CTRY": "SP", "STATE": null, "ICAO": null, "LAT": 37.583, "LON": -1.0, "ELEV(M)": 217.0, "BEGIN": 19730101, "END": 19971231 }, "geometry": { "type": "Point", "coordinates": [ -1.0, 37.583 ] } },
{ "type": "Feature", "properties": { "USAF": "084330", "WBAN": 99999, "STATION NAME": "MURCIA SAN JAVIER", "CTRY": "SP", "STATE": null, "ICAO": "LELC", "LAT": 37.775, "LON": -0.812, "ELEV(M)": 3.4, "BEGIN": 19730101, "END": 20221231 }, "geometry": { "type": "Point", "coordinates": [ -0.812, 37.775 ] } },
{ "type": "Feature", "properties": { "USAF": "084490", "WBAN": 13025, "STATION NAME": "ROTA NAVAL AIR STATION", "CTRY": "SP", "STATE": null, "ICAO": "LERT", "LAT": 36.65, "LON": -6.35, "ELEV(M)": 25.6, "BEGIN": 19730101, "END": 20221231 }, "geometry": { "type": "Point", "coordinates": [ -6.35, 36.65 ] } },
{ "type": "Feature", "properties": { "USAF": "084510", "WBAN": 99999, "STATION NAME": "JEREZ", "CTRY": "SP", "STATE": null, "ICAO": "LEJR", "LAT": 36.745, "LON": -6.06, "ELEV(M)": 28.3, "BEGIN": 19730101, "END": 20221231 }, "geometry": { "type": "Point", "coordinates": [ -6.06, 36.745 ] } },
{ "type": "Feature", "properties": { "USAF": "084515", "WBAN": 99999, "STATION NAME": "LLEIDA-ALGUAIRE AIRPORT", "CTRY": "SP", "STATE": null, "ICAO": "LEDA", "LAT": 41.728, "LON": 0.536, "ELEV(M)": 350.0, "BEGIN": 20100114, "END": 20221231 }, "geometry": { "type": "Point", "coordinates": [ 0.536, 41.728 ] } },
{ "type": "Feature", "properties": { "USAF": "084520", "WBAN": 99999, "STATION NAME": "CADIZ OBS", "CTRY": "SP", "STATE": null, "ICAO": null, "LAT": 36.5, "LON": -6.25, "ELEV(M)": 9.0, "BEGIN": 19730101, "END": 20221024 }, "geometry": { "type": "Point", "coordinates": [ -6.25, 36.5 ] } },
{ "type": "Feature", "properties": { "USAF": "084530", "WBAN": 99999, "STATION NAME": "SAN FERNANDO", "CTRY": "SP", "STATE": null, "ICAO": null, "LAT": 36.467, "LON": -6.2, "ELEV(M)": 30.0, "BEGIN": 19310103, "END": 20221218 }, "geometry": { "type": "Point", "coordinates": [ -6.2, 36.467 ] } },
{ "type": "Feature", "properties": { "USAF": "084580", "WBAN": 99999, "STATION NAME": "TARIFA", "CTRY": "SP", "STATE": null, "ICAO": null, "LAT": 36.0, "LON": -5.6, "ELEV(M)": 25.0, "BEGIN": 19730101, "END": 20221231 }, "geometry": { "type": "Point", "coordinates": [ -5.6, 36.0 ] } },
{ "type": "Feature", "properties": { "USAF": "084750", "WBAN": 99999, "STATION NAME": "ALHAURIN EL GRANDE", "CTRY": "SP", "STATE": null, "ICAO": null, "LAT": 36.617, "LON": -4.667, "ELEV(M)": 1147.0, "BEGIN": 20050604, "END": 20051221 }, "geometry": { "type": "Point", "coordinates": [ -4.667, 36.617 ] } },
{ "type": "Feature", "properties": { "USAF": "084820", "WBAN": 99999, "STATION NAME": "MALAGA", "CTRY": "SP", "STATE": null, "ICAO": "LEMG", "LAT": 36.675, "LON": -4.499, "ELEV(M)": 15.8, "BEGIN": 19730101, "END": 20221231 }, "geometry": { "type": "Point", "coordinates": [ -4.499, 36.675 ] } },
{ "type": "Feature", "properties": { "USAF": "084840", "WBAN": 99999, "STATION NAME": "MALAGA", "CTRY": "SP", "STATE": null, "ICAO": null, "LAT": 36.717, "LON": -4.417, "ELEV(M)": 54.0, "BEGIN": 19751215, "END": 19751215 }, "geometry": { "type": "Point", "coordinates": [ -4.417, 36.717 ] } },
{ "type": "Feature", "properties": { "USAF": "084870", "WBAN": 99999, "STATION NAME": "ALMERIA", "CTRY": "SP", "STATE": null, "ICAO": "LEAM", "LAT": 36.844, "LON": -2.37, "ELEV(M)": 21.3, "BEGIN": 19310102, "END": 20221231 }, "geometry": { "type": "Point", "coordinates": [ -2.37, 36.844 ] } },
{ "type": "Feature", "properties": { "USAF": "084880", "WBAN": 99999, "STATION NAME": "ALMERIA", "CTRY": "SP", "STATE": null, "ICAO": null, "LAT": 36.833, "LON": -2.467, "ELEV(M)": 7.0, "BEGIN": 20020109, "END": 20221231 }, "geometry": { "type": "Point", "coordinates": [ -2.467, 36.833 ] } },
{ "type": "Feature", "properties": { "USAF": "084890", "WBAN": 99999, "STATION NAME": "NIJAR", "CTRY": "SP", "STATE": null, "ICAO": null, "LAT": 36.833, "LON": -2.083, "ELEV(M)": 486.0, "BEGIN": 20040817, "END": 20220704 }, "geometry": { "type": "Point", "coordinates": [ -2.083, 36.833 ] } },
{ "type": "Feature", "properties": { "USAF": "084900", "WBAN": 99999, "STATION NAME": "ALBORAN ISLAND", "CTRY": "SP", "STATE": null, "ICAO": null, "LAT": 35.933, "LON": -3.033, "ELEV(M)": 19.0, "BEGIN": 19730101, "END": 20180530 }, "geometry": { "type": "Point", "coordinates": [ -3.033, 35.933 ] } },
{ "type": "Feature", "properties": { "USAF": "089110", "WBAN": 99999, "STATION NAME": "ARAGUES DEL PUERTO- LIZARRA", "CTRY": "SP", "STATE": null, "ICAO": null, "LAT": 42.767, "LON": -0.633, "ELEV(M)": 1540.0, "BEGIN": 20191211, "END": 20221231 }, "geometry": { "type": "Point", "coordinates": [ -0.633, 42.767 ] } },
{ "type": "Feature", "properties": { "USAF": "089120", "WBAN": 99999, "STATION NAME": "ISABA EL FERIAL", "CTRY": "SP", "STATE": null, "ICAO": null, "LAT": 42.95, "LON": -0.8, "ELEV(M)": 1591.0, "BEGIN": 20151207, "END": 20221231 }, "geometry": { "type": "Point", "coordinates": [ -0.8, 42.95 ] } },
{ "type": "Feature", "properties": { "USAF": "089130", "WBAN": 99999, "STATION NAME": "ANSO REFUGIO DE LINZA", "CTRY": "SP", "STATE": null, "ICAO": null, "LAT": 42.9, "LON": -0.8, "ELEV(M)": 1340.0, "BEGIN": 20191211, "END": 20221231 }, "geometry": { "type": "Point", "coordinates": [ -0.8, 42.9 ] } },
{ "type": "Feature", "properties": { "USAF": "089140", "WBAN": 99999, "STATION NAME": "CANDANCHU  'ETUKSA'", "CTRY": "SP", "STATE": null, "ICAO": null, "LAT": 42.783, "LON": -0.533, "ELEV(M)": 1560.0, "BEGIN": 20031016, "END": 20221223 }, "geometry": { "type": "Point", "coordinates": [ -0.533, 42.783 ] } },
{ "type": "Feature", "properties": { "USAF": "089160", "WBAN": 99999, "STATION NAME": "ASTUN  'ESQUI 1730'", "CTRY": "SP", "STATE": null, "ICAO": null, "LAT": 42.817, "LON": -0.5, "ELEV(M)": 1730.0, "BEGIN": 20191219, "END": 20221231 }, "geometry": { "type": "Point", "coordinates": [ -0.5, 42.817 ] } },
{ "type": "Feature", "properties": { "USAF": "089170", "WBAN": 99999, "STATION NAME": "SALLENT DE GALLEGO   'FURCO'", "CTRY": "SP", "STATE": null, "ICAO": null, "LAT": 42.767, "LON": -0.383, "ELEV(M)": 1855.0, "BEGIN": 20060201, "END": 20221231 }, "geometry": { "type": "Point", "coordinates": [ -0.383, 42.767 ] } },
{ "type": "Feature", "properties": { "USAF": "089180", "WBAN": 99999, "STATION NAME": "SALLENT DE GALLEGO   'FORMIGAL'", "CTRY": "SP", "STATE": null, "ICAO": null, "LAT": 42.767, "LON": -0.367, "ELEV(M)": 1500.0, "BEGIN": 20191212, "END": 20210919 }, "geometry": { "type": "Point", "coordinates": [ -0.367, 42.767 ] } },
{ "type": "Feature", "properties": { "USAF": "089200", "WBAN": 99999, "STATION NAME": "SALLENT DE GALLEGO   'RESPOMUSO'", "CTRY": "SP", "STATE": null, "ICAO": null, "LAT": 42.817, "LON": -0.3, "ELEV(M)": 2145.0, "BEGIN": 20051101, "END": 20221212 }, "geometry": { "type": "Point", "coordinates": [ -0.3, 42.817 ] } },
{ "type": "Feature", "properties": { "USAF": "089220", "WBAN": 99999, "STATION NAME": "PANTICOSA  'REFUGIO CASA PIEDRA'", "CTRY": "SP", "STATE": null, "ICAO": null, "LAT": 42.767, "LON": -0.233, "ELEV(M)": 1645.0, "BEGIN": 20050111, "END": 20221231 }, "geometry": { "type": "Point", "coordinates": [ -0.233, 42.767 ] } },
{ "type": "Feature", "properties": { "USAF": "089240", "WBAN": 99999, "STATION NAME": "PANTICOSA PETROSOS", "CTRY": "SP", "STATE": null, "ICAO": null, "LAT": 42.704, "LON": -0.275, "ELEV(M)": 1850.0, "BEGIN": 20191211, "END": 20221231 }, "geometry": { "type": "Point", "coordinates": [ -0.275, 42.704 ] } },
{ "type": "Feature", "properties": { "USAF": "089250", "WBAN": 99999, "STATION NAME": "ERISTE REFUGIO ANGEL ORUS", "CTRY": "SP", "STATE": null, "ICAO": null, "LAT": 42.633, "LON": 0.45, "ELEV(M)": 2115.0, "BEGIN": 20191211, "END": 20221231 }, "geometry": { "type": "Point", "coordinates": [ 0.45, 42.633 ] } },
{ "type": "Feature", "properties": { "USAF": "089260", "WBAN": 99999, "STATION NAME": "FANLO  'REFUGIO DE GORIZ'", "CTRY": "SP", "STATE": null, "ICAO": null, "LAT": 42.667, "LON": 0.017, "ELEV(M)": 2195.0, "BEGIN": 20191211, "END": 20221231 }, "geometry": { "type": "Point", "coordinates": [ 0.017, 42.667 ] } },
{ "type": "Feature", "properties": { "USAF": "089270", "WBAN": 99999, "STATION NAME": "BIELSA REFUGIO DE PINETA", "CTRY": "SP", "STATE": null, "ICAO": null, "LAT": 42.667, "LON": 0.1, "ELEV(M)": 1240.0, "BEGIN": 20191211, "END": 20221231 }, "geometry": { "type": "Point", "coordinates": [ 0.1, 42.667 ] } },
{ "type": "Feature", "properties": { "USAF": "089280", "WBAN": 99999, "STATION NAME": "BENASQUE  'REFUGIO DE ESTOS'", "CTRY": "SP", "STATE": null, "ICAO": null, "LAT": 42.683, "LON": 0.483, "ELEV(M)": 1890.0, "BEGIN": 20191211, "END": 20221231 }, "geometry": { "type": "Point", "coordinates": [ 0.483, 42.683 ] } },
{ "type": "Feature", "properties": { "USAF": "089300", "WBAN": 99999, "STATION NAME": "CERLER ESQUI COTA 2000", "CTRY": "SP", "STATE": null, "ICAO": null, "LAT": 42.567, "LON": 0.55, "ELEV(M)": 2020.0, "BEGIN": 20191212, "END": 20221231 }, "geometry": { "type": "Point", "coordinates": [ 0.55, 42.567 ] } },
{ "type": "Feature", "properties": { "USAF": "089360", "WBAN": 99999, "STATION NAME": "CAP DE VAQUEIRA", "CTRY": "SP", "STATE": null, "ICAO": null, "LAT": 42.7, "LON": 0.967, "ELEV(M)": 2467.0, "BEGIN": 20210527, "END": 20221208 }, "geometry": { "type": "Point", "coordinates": [ 0.967, 42.7 ] } },
{ "type": "Feature", "properties": { "USAF": "089380", "WBAN": 99999, "STATION NAME": "PORT AINE L'ORRI", "CTRY": "SP", "STATE": null, "ICAO": null, "LAT": 42.417, "LON": 1.217, "ELEV(M)": 2410.0, "BEGIN": 20210527, "END": 20221203 }, "geometry": { "type": "Point", "coordinates": [ 1.217, 42.417 ] } },
{ "type": "Feature", "properties": { "USAF": "089400", "WBAN": 99999, "STATION NAME": "CAP DE RAC", "CTRY": "SP", "STATE": null, "ICAO": null, "LAT": 42.433, "LON": 1.667, "ELEV(M)": 1940.0, "BEGIN": 20210527, "END": 20221214 }, "geometry": { "type": "Point", "coordinates": [ 1.667, 42.433 ] } },
{ "type": "Feature", "properties": { "USAF": "089480", "WBAN": 99999, "STATION NAME": "VALLTER 2000", "CTRY": "SP", "STATE": null, "ICAO": null, "LAT": 42.433, "LON": 2.267, "ELEV(M)": 2167.0, "BEGIN": 20031017, "END": 20051128 }, "geometry": { "type": "Point", "coordinates": [ 2.267, 42.433 ] } },
{ "type": "Feature", "properties": { "USAF": "089580", "WBAN": 99999, "STATION NAME": "CAMARENA DE LA SIERRA", "CTRY": "SP", "STATE": null, "ICAO": null, "LAT": 40.117, "LON": -1.033, "ELEV(M)": 1520.0, "BEGIN": 20191212, "END": 20201021 }, "geometry": { "type": "Point", "coordinates": [ -1.033, 40.117 ] } },
{ "type": "Feature", "properties": { "USAF": "089600", "WBAN": 99999, "STATION NAME": "VALDELINARES  'ESQUI'", "CTRY": "SP", "STATE": null, "ICAO": null, "LAT": 40.383, "LON": -0.633, "ELEV(M)": 1955.0, "BEGIN": 20031222, "END": 20221230 }, "geometry": { "type": "Point", "coordinates": [ -0.633, 40.383 ] } },
{ "type": "Feature", "properties": { "USAF": "600010", "WBAN": 99999, "STATION NAME": "HIERRO", "CTRY": "SP", "STATE": null, "ICAO": "GCHI", "LAT": 27.815, "LON": -17.887, "ELEV(M)": 31.4, "BEGIN": 19730313, "END": 20221231 }, "geometry": { "type": "Point", "coordinates": [ -17.887, 27.815 ] } },
{ "type": "Feature", "properties": { "USAF": "600050", "WBAN": 99999, "STATION NAME": "LA PALMA", "CTRY": "SP", "STATE": null, "ICAO": "GCLA", "LAT": 28.626, "LON": -17.756, "ELEV(M)": 32.6, "BEGIN": 19600101, "END": 20221231 }, "geometry": { "type": "Point", "coordinates": [ -17.756, 28.626 ] } },
{ "type": "Feature", "properties": { "USAF": "600070", "WBAN": 99999, "STATION NAME": "LA GOMERA/AEROPUERTO", "CTRY": "SP", "STATE": null, "ICAO": null, "LAT": 28.033, "LON": -17.217, "ELEV(M)": 219.0, "BEGIN": 20040529, "END": 20221231 }, "geometry": { "type": "Point", "coordinates": [ -17.217, 28.033 ] } },
{ "type": "Feature", "properties": { "USAF": "600100", "WBAN": 99999, "STATION NAME": "IZANA", "CTRY": "SP", "STATE": null, "ICAO": null, "LAT": 28.317, "LON": -16.5, "ELEV(M)": 2368.0, "BEGIN": 19470101, "END": 20221231 }, "geometry": { "type": "Point", "coordinates": [ -16.5, 28.317 ] } },
{ "type": "Feature", "properties": { "USAF": "600150", "WBAN": 99999, "STATION NAME": "TENERIFE NORTE", "CTRY": "SP", "STATE": null, "ICAO": "GCXO", "LAT": 28.483, "LON": -16.342, "ELEV(M)": 631.9, "BEGIN": 19470101, "END": 20221231 }, "geometry": { "type": "Point", "coordinates": [ -16.342, 28.483 ] } },
{ "type": "Feature", "properties": { "USAF": "600180", "WBAN": 99999, "STATION NAME": "TENERIFE-GUIMAR", "CTRY": "SP", "STATE": null, "ICAO": null, "LAT": 28.317, "LON": -16.383, "ELEV(M)": 111.0, "BEGIN": 20081007, "END": 20221215 }, "geometry": { "type": "Point", "coordinates": [ -16.383, 28.317 ] } },
{ "type": "Feature", "properties": { "USAF": "600200", "WBAN": 99999, "STATION NAME": "STA. CRUZ DE TENERIFE", "CTRY": "SP", "STATE": null, "ICAO": null, "LAT": 28.45, "LON": -16.25, "ELEV(M)": 36.0, "BEGIN": 19310103, "END": 20221231 }, "geometry": { "type": "Point", "coordinates": [ -16.25, 28.45 ] } },
{ "type": "Feature", "properties": { "USAF": "600250", "WBAN": 99999, "STATION NAME": "TENERIFE SUR", "CTRY": "SP", "STATE": null, "ICAO": "GCTS", "LAT": 28.044, "LON": -16.572, "ELEV(M)": 63.7, "BEGIN": 19800701, "END": 20221231 }, "geometry": { "type": "Point", "coordinates": [ -16.572, 28.044 ] } },
{ "type": "Feature", "properties": { "USAF": "600280", "WBAN": 99999, "STATION NAME": "ARTENARA", "CTRY": "SP", "STATE": null, "ICAO": null, "LAT": 28.017, "LON": -15.617, "ELEV(M)": 1681.0, "BEGIN": 20040522, "END": 20060205 }, "geometry": { "type": "Point", "coordinates": [ -15.617, 28.017 ] } },
{ "type": "Feature", "properties": { "USAF": "600300", "WBAN": 99999, "STATION NAME": "GRAN CANARIA", "CTRY": "SP", "STATE": null, "ICAO": "GCLP", "LAT": 27.932, "LON": -15.387, "ELEV(M)": 23.8, "BEGIN": 19500316, "END": 20221231 }, "geometry": { "type": "Point", "coordinates": [ -15.387, 27.932 ] } },
{ "type": "Feature", "properties": { "USAF": "600310", "WBAN": 99999, "STATION NAME": "BOGUS CANARY ISLAND", "CTRY": "SP", "STATE": null, "ICAO": null, "LAT": 0.0, "LON": 0.0, "ELEV(M)": -999.0, "BEGIN": 19870301, "END": 20041205 }, "geometry": { "type": "Point", "coordinates": [ 0.0, 0.0 ] } },
{ "type": "Feature", "properties": { "USAF": "600350", "WBAN": 99999, "STATION NAME": "FUERTEVENTURA", "CTRY": "SP", "STATE": null, "ICAO": "GCFV", "LAT": 28.453, "LON": -13.864, "ELEV(M)": 25.3, "BEGIN": 19500327, "END": 20221231 }, "geometry": { "type": "Point", "coordinates": [ -13.864, 28.453 ] } },
{ "type": "Feature", "properties": { "USAF": "600400", "WBAN": 99999, "STATION NAME": "LANZAROTE", "CTRY": "SP", "STATE": null, "ICAO": "GCRR", "LAT": 28.945, "LON": -13.605, "ELEV(M)": 14.3, "BEGIN": 19500310, "END": 20221231 }, "geometry": { "type": "Point", "coordinates": [ -13.605, 28.945 ] } },
{ "type": "Feature", "properties": { "USAF": "603200", "WBAN": 99999, "STATION NAME": "CEUTA", "CTRY": "SP", "STATE": null, "ICAO": "GECE", "LAT": 35.889, "LON": -5.347, "ELEV(M)": 88.0, "BEGIN": 19650101, "END": 20221231 }, "geometry": { "type": "Point", "coordinates": [ -5.347, 35.889 ] } },
{ "type": "Feature", "properties": { "USAF": "603380", "WBAN": 99999, "STATION NAME": "MELILLA", "CTRY": "SP", "STATE": null, "ICAO": "GEML", "LAT": 35.28, "LON": -2.956, "ELEV(M)": 47.5, "BEGIN": 19641001, "END": 20221231 }, "geometry": { "type": "Point", "coordinates": [ -2.956, 35.28 ] } },
{ "type": "Feature", "properties": { "USAF": "696694", "WBAN": 99999, "STATION NAME": "MORON AB", "CTRY": "SP", "STATE": null, "ICAO": "KQQQ", "LAT": 37.167, "LON": -5.617, "ELEV(M)": null, "BEGIN": 19840828, "END": 19971126 }, "geometry": { "type": "Point", "coordinates": [ -5.617, 37.167 ] } }
]
}
