{
"type": "FeatureCollection",
"name": "VT",
"crs": { "type": "name", "properties": { "name": "urn:ogc:def:crs:OGC:1.3:CRS84" } },
"features": [
{ "type": "Feature", "properties": { "USAF": "720492", "WBAN": 151, "STATION NAME": "CALEDONIA COUNTY AIRPORT", "CTRY": "US", "STATE": "VT", "ICAO": "KCDA", "LAT": 44.567, "LON": -72.017, "ELEV(M)": 362.1, "BEGIN": 20090101, "END": 20221231 }, "geometry": { "type": "Point", "coordinates": [ -72.017, 44.567 ] } },
{ "type": "Feature", "properties": { "USAF": "720492", "WBAN": 99999, "STATION NAME": "CALEDONIA COUNTY AIRPORT", "CTRY": "US", "STATE": "VT", "ICAO": "KCDA", "LAT": 44.567, "LON": -72.017, "ELEV(M)": 362.0, "BEGIN": 20080422, "END": 20081231 }, "geometry": { "type": "Point", "coordinates": [ -72.017, 44.567 ] } },
{ "type": "Feature", "properties": { "USAF": "720493", "WBAN": 54758, "STATION NAME": "NEWPORT AP", "CTRY": "US", "STATE": "VT", "ICAO": "KEFK", "LAT": 44.883, "LON": -72.233, "ELEV(M)": 278.9, "BEGIN": 20090101, "END": 20221231 }, "geometry": { "type": "Point", "coordinates": [ -72.233, 44.883 ] } },
{ "type": "Feature", "properties": { "USAF": "720493", "WBAN": 99999, "STATION NAME": "NEWPORT STATE", "CTRY": "US", "STATE": "VT", "ICAO": "KEFK", "LAT": 44.889, "LON": -72.229, "ELEV(M)": 283.5, "BEGIN": 20080423, "END": 20081231 }, "geometry": { "type": "Point", "coordinates": [ -72.229, 44.889 ] } },
{ "type": "Feature", "properties": { "USAF": "720494", "WBAN": 152, "STATION NAME": "FRANKLIN COUNTY STATE AIRPORT", "CTRY": "US", "STATE": "VT", "ICAO": "KFSO", "LAT": 44.933, "LON": -73.1, "ELEV(M)": 70.1, "BEGIN": 20080401, "END": 20221231 }, "geometry": { "type": "Point", "coordinates": [ -73.1, 44.933 ] } },
{ "type": "Feature", "properties": { "USAF": "721028", "WBAN": 99999, "STATION NAME": "MIDDLEBURY STATE AIRPORT", "CTRY": "US", "STATE": "VT", "ICAO": null, "LAT": 43.985, "LON": -73.095, "ELEV(M)": 149.4, "BEGIN": 20120227, "END": 20221231 }, "geometry": { "type": "Point", "coordinates": [ -73.095, 43.985 ] } },
{ "type": "Feature", "properties": { "USAF": "725121", "WBAN": 14761, "STATION NAME": "BURLIGTON/COLCHE", "CTRY": "US", "STATE": "VT", "ICAO": "KPSB", "LAT": 40.9, "LON": -78.083, "ELEV(M)": 593.8, "BEGIN": 19850531, "END": 19860827 }, "geometry": { "type": "Point", "coordinates": [ -78.083, 40.9 ] } },
{ "type": "Feature", "properties": { "USAF": "725160", "WBAN": 99999, "STATION NAME": "BENNINGTON STATE", "CTRY": "US", "STATE": "VT", "ICAO": null, "LAT": 42.883, "LON": -73.25, "ELEV(M)": 252.0, "BEGIN": 20030805, "END": 20030805 }, "geometry": { "type": "Point", "coordinates": [ -73.25, 42.883 ] } },
{ "type": "Feature", "properties": { "USAF": "725165", "WBAN": 94737, "STATION NAME": "RUTLAND STATE AIRPORT", "CTRY": "US", "STATE": "VT", "ICAO": "KRUT", "LAT": 43.533, "LON": -72.95, "ELEV(M)": 239.0, "BEGIN": 20060101, "END": 20221231 }, "geometry": { "type": "Point", "coordinates": [ -72.95, 43.533 ] } },
{ "type": "Feature", "properties": { "USAF": "725165", "WBAN": 99999, "STATION NAME": "RUTLAND STATE", "CTRY": "US", "STATE": "VT", "ICAO": "KRUT", "LAT": 43.517, "LON": -72.95, "ELEV(M)": 240.0, "BEGIN": 19730102, "END": 19971231 }, "geometry": { "type": "Point", "coordinates": [ -72.95, 43.517 ] } },
{ "type": "Feature", "properties": { "USAF": "726114", "WBAN": 54771, "STATION NAME": "MORRISVILLE-STOWE ST ARPT", "CTRY": "US", "STATE": "VT", "ICAO": "KMVL", "LAT": 44.533, "LON": -72.615, "ELEV(M)": 224.4, "BEGIN": 20060101, "END": 20221231 }, "geometry": { "type": "Point", "coordinates": [ -72.615, 44.533 ] } },
{ "type": "Feature", "properties": { "USAF": "726114", "WBAN": 99999, "STATION NAME": "MORRISVILLE STOWE ST", "CTRY": "US", "STATE": "VT", "ICAO": "KMVL", "LAT": 44.533, "LON": -72.617, "ELEV(M)": 223.0, "BEGIN": 19970123, "END": 19971231 }, "geometry": { "type": "Point", "coordinates": [ -72.617, 44.533 ] } },
{ "type": "Feature", "properties": { "USAF": "726115", "WBAN": 54740, "STATION NAME": "HARTNESS ST (SPNGFLD) ARPT", "CTRY": "US", "STATE": "VT", "ICAO": "KVSF", "LAT": 43.342, "LON": -72.521, "ELEV(M)": 173.2, "BEGIN": 20060101, "END": 20221231 }, "geometry": { "type": "Point", "coordinates": [ -72.521, 43.342 ] } },
{ "type": "Feature", "properties": { "USAF": "726115", "WBAN": 99999, "STATION NAME": "HARTNESS STATE", "CTRY": "US", "STATE": "VT", "ICAO": "KVSF", "LAT": 43.35, "LON": -72.517, "ELEV(M)": 176.0, "BEGIN": 19730924, "END": 19971231 }, "geometry": { "type": "Point", "coordinates": [ -72.517, 43.35 ] } },
{ "type": "Feature", "properties": { "USAF": "726120", "WBAN": 99999, "STATION NAME": "NEWPORT", "CTRY": "US", "STATE": "VT", "ICAO": null, "LAT": 44.93, "LON": -72.2, "ELEV(M)": 233.0, "BEGIN": 19730101, "END": 20010621 }, "geometry": { "type": "Point", "coordinates": [ -72.2, 44.93 ] } },
{ "type": "Feature", "properties": { "USAF": "726140", "WBAN": 54742, "STATION NAME": "ST. JOHNSBURY(AMOS)", "CTRY": "US", "STATE": "VT", "ICAO": "K1V4", "LAT": 44.42, "LON": -72.019, "ELEV(M)": 212.4, "BEGIN": 19730101, "END": 20221231 }, "geometry": { "type": "Point", "coordinates": [ -72.019, 44.42 ] } },
{ "type": "Feature", "properties": { "USAF": "726145", "WBAN": 94705, "STATION NAME": "EDWARD F KNAPP STATE ARPT", "CTRY": "US", "STATE": "VT", "ICAO": "KMPV", "LAT": 44.205, "LON": -72.565, "ELEV(M)": 336.7, "BEGIN": 19730101, "END": 20221231 }, "geometry": { "type": "Point", "coordinates": [ -72.565, 44.205 ] } },
{ "type": "Feature", "properties": { "USAF": "726166", "WBAN": 54781, "STATION NAME": "W. H. MORSE STATE AIRPORT", "CTRY": "US", "STATE": "VT", "ICAO": "KDDH", "LAT": 42.891, "LON": -73.247, "ELEV(M)": 251.8, "BEGIN": 20060101, "END": 20221231 }, "geometry": { "type": "Point", "coordinates": [ -73.247, 42.891 ] } },
{ "type": "Feature", "properties": { "USAF": "726166", "WBAN": 99999, "STATION NAME": "WILLIAM H MORSE STATE", "CTRY": "US", "STATE": "VT", "ICAO": null, "LAT": 42.891, "LON": -73.246, "ELEV(M)": 252.1, "BEGIN": 20010811, "END": 20051231 }, "geometry": { "type": "Point", "coordinates": [ -73.246, 42.891 ] } },
{ "type": "Feature", "properties": { "USAF": "726170", "WBAN": 14742, "STATION NAME": "BURLINGTON INTERNATIONAL AIRPORT", "CTRY": "US", "STATE": "VT", "ICAO": "KBTV", "LAT": 44.468, "LON": -73.15, "ELEV(M)": 101.1, "BEGIN": 19480101, "END": 20221231 }, "geometry": { "type": "Point", "coordinates": [ -73.15, 44.468 ] } },
{ "type": "Feature", "properties": { "USAF": "999999", "WBAN": 425, "STATION NAME": "MIDDLEBURY STATE AIRPORT", "CTRY": "US", "STATE": "VT", "ICAO": null, "LAT": 43.985, "LON": -73.095, "ELEV(M)": 149.1, "BEGIN": 20140731, "END": 20221231 }, "geometry": { "type": "Point", "coordinates": [ -73.095, 43.985 ] } },
{ "type": "Feature", "properties": { "USAF": "999999", "WBAN": 14742, "STATION NAME": "BURLNGTN ETAN ALN AP", "CTRY": "US", "STATE": "VT", "ICAO": "KBTV", "LAT": 44.468, "LON": -73.15, "ELEV(M)": 103.6, "BEGIN": 19650101, "END": 19721231 }, "geometry": { "type": "Point", "coordinates": [ -73.15, 44.468 ] } },
{ "type": "Feature", "properties": { "USAF": "999999", "WBAN": 54781, "STATION NAME": "W. H. MORSE STATE AIRPORT", "CTRY": "US", "STATE": "VT", "ICAO": "KDDH", "LAT": 42.894, "LON": -73.249, "ELEV(M)": 241.0, "BEGIN": 19981202, "END": 20051231 }, "geometry": { "type": "Point", "coordinates": [ -73.249, 42.894 ] } },
{ "type": "Feature", "properties": { "USAF": "999999", "WBAN": 94705, "STATION NAME": "MONTPELIER AP", "CTRY": "US", "STATE": "VT", "ICAO": "KMPV", "LAT": 44.204, "LON": -72.562, "ELEV(M)": 341.7, "BEGIN": 19490201, "END": 19550101 }, "geometry": { "type": "Point", "coordinates": [ -72.562, 44.204 ] } }
]
}
